id;CityName;Latitude;Longitude;CountryCode;Population
3039163;Sant Julià de Lòria;42.46372;1.49129;AD;8022
3039678;Ordino;42.55623;1.53319;AD;3066
3040051;les Escaldes;42.50729;1.53414;AD;15853
3040132;la Massana;42.54499;1.51483;AD;7211
3040686;Encamp;42.53474;1.58014;AD;11223
3041204;Canillo;42.5676;1.59756;AD;3292
3041563;Andorra la Vella;42.50779;1.52109;AD;20430
290594;Umm Al Quwain City;25.56473;55.55517;AE;62747
291074;Ras Al Khaimah City;25.78953;55.9432;AE;351943
291279;Muzayri‘;23.14355;53.7881;AE;10000
291580;Zayed City;23.65416;53.70522;AE;63482
291696;Khawr Fakkān;25.33132;56.34199;AE;40677
292223;Dubai;25.07725;55.30927;AE;2956587
292231;Dibba Al-Fujairah;25.59246;56.26176;AE;30000
292239;Dibba Al-Hisn;25.61955;56.27291;AE;26395
292672;Sharjah;25.33737;55.41206;AE;1324473
292688;Ar Ruways;24.11028;52.73056;AE;16000
292878;Al Fujairah City;25.11641;56.34141;AE;86512
292913;Al Ain City;24.19167;55.76056;AE;55091
292932;Ajman City;25.40177;55.47878;AE;490035
292953;Adh Dhayd;25.28812;55.88157;AE;24716
292968;Abu Dhabi;24.45118;54.39696;AE;603492
12042052;Bani Yas City;24.30978;54.62944;AE;80498
12042053;Musaffah;24.35893;54.48267;AE;243341
12047416;Al Shamkhah City;24.39268;54.70779;AE;61710
12047417;Reef Al Fujairah City;25.14479;56.24764;AE;82310
1120483;Kuhsān;34.65389;61.19778;AF;12087
1120487;Tukzār;35.94831;66.42132;AF;12021
1120711;Zindah Jān;34.34264;61.74675;AF;10104
1120863;Zarghūn Shahr;32.84734;68.44573;AF;13737
1120879;Zaṟah Sharan;33.14641;68.79213;AF;7366
1120985;Zaranj;30.95962;61.86037;AF;49851
1121271;Yangī Qal‘ah;37.46572;69.61131;AF;6541
1122408;Tīr Pul;34.59431;61.26895;AF;6979
1122747;Tarinkot;32.62998;65.87806;AF;10000
1123004;Taloqan;36.73605;69.53451;AF;64256
1123343;Tagāw-Bāy;35.69941;66.06164;AF;9096
1123424;Tagāb;34.85501;69.64917;AF;6400
1125155;Shīnḏanḏ;33.30294;62.1474;AF;29264
1125444;Shibirghān;36.66757;65.7529;AF;55641
1125896;Shahrak;34.10737;64.3052;AF;15967
1126606;Sidqābād;35.02298;69.35112;AF;7407
1127110;Sar-e Pul;36.21544;65.93249;AF;52121
1127547;Sangīn;32.07275;64.8359;AF;13579
1127628;Sang-e Chārak;35.84972;66.43694;AF;15377
1127768;Aībak;36.26468;68.01551;AF;47823
1128239;Rūdbār;30.15;62.6;AF;11034
1128265;Rustāq;37.12604;69.83045;AF;25636
1129516;Qarqīn;37.41853;66.04358;AF;15018
1129636;Qarchī Gak;37.03999;66.78891;AF;8942
1129648;Qarāwul;37.21959;68.7802;AF;24544
1129678;Qarah Bāgh;34.94023;61.77589;AF;12412
1129867;Qala i Naw;34.98735;63.12891;AF;9000
1130065;Qal‘ah-ye Shahr;35.54729;65.5676;AF;7756
1130131;Qalāt;32.10575;66.90833;AF;12191
1130469;Pārūn;35.42064;70.92261;AF;1000
1130490;Pul-e Khumrī;35.94458;68.71512;AF;56369
1130497;Pul-e ‘Alam;33.99529;69.02274;AF;13247
1131162;Panjāb;34.38795;67.02327;AF;13471
1131316;Paghmān;34.58787;68.95091;AF;49157
1131462;Uruzgān;32.92775;66.63253;AF;13388
1131833;Nīlī;33.72178;66.13023;AF;0
1132495;Nahrīn;36.0649;69.13343;AF;22363
1133270;Mīr Bachah Kōṯ;34.74999;69.11899;AF;5405
1133310;Mīrābād;30.43624;61.8383;AF;14160
1133453;Maymana;35.92139;64.78361;AF;75900
1133574;Mehtar Lām;34.67139;70.20944;AF;17345
1133616;Mazār-e Sharīf;36.70904;67.11087;AF;303282
1134720;Lashkar Gāh;31.59382;64.37161;AF;43934
1134762;Larkird;35.48936;66.66409;AF;11635
1135158;Kushk;33.29565;61.95221;AF;16952
1135689;Kunduz;36.72895;68.857;AF;161902
1136469;Khōst;33.33951;69.92041;AF;96123
1136575;Khulm;36.69736;67.69826;AF;64933
1136863;Khāsh;31.52919;62.79055;AF;15133
1137148;Khandūd;36.95127;72.318;AF;5521
1137168;Khanabad;36.6825;69.11556;AF;71531
1137807;Karukh;34.48108;62.5863;AF;17484
1138336;Kandahār;31.61332;65.71013;AF;391190
1138958;Kabul;34.52813;69.17233;AF;3043532
1139085;Jurm;36.86477;70.83421;AF;12106
1139715;Jalālābād;34.42647;70.45153;AF;200331
1139807;Jabal os Saraj;35.11833;69.23778;AF;15032
1140026;Herāt;34.34817;62.19967;AF;272806
1141089;Ghormach;35.73062;63.78264;AF;30000
1141269;Ghazni;33.55391;68.42096;AF;141000
1141540;Gereshk;31.82089;64.57005;AF;43588
1141857;Gardez;33.59744;69.22592;AF;103601
1142170;Fayzabad;37.11664;70.58002;AF;44421
1142239;Farkhār;36.57288;69.85783;AF;10480
1142264;Farah;32.37451;62.11638;AF;43561
1142404;Kafir Qala;34.66667;61.06667;AF;18086
1142545;Imām Şāḩib;37.18897;68.93644;AF;9659
1143838;Dasht-e Archī;37.13333;69.16667;AF;8263
1143874;Darzāb;35.97744;65.37828;AF;9642
1143901;Markaz-e Ḩukūmat-e Darwēshān;31.13231;64.1934;AF;9012
1144942;Chīras;35.41674;65.98234;AF;12779
1145352;Charikar;35.01361;69.17139;AF;53676
1145866;Chahār Burj;34.24475;62.19165;AF;11935
1145904;Fayrōz Kōh;34.51952;65.25093;AF;15000
1146822;Bāsawul;34.24749;70.87218;AF;6835
1147066;Baraki Barak;33.96744;68.9492;AF;22305
1147242;Bāmyān;34.82156;67.82734;AF;61863
1147290;Balkh;36.75635;66.8972;AF;114883
1147540;Baghlān;36.13068;68.70829;AF;108449
1147851;Ḩukūmatī Azrah;34.17355;69.64573;AF;12526
1148106;Ārt Khwājah;37.08571;69.47958;AF;18623
1148205;Āsmār;35.03333;71.35809;AF;15708
1148268;Ashkāsham;36.68333;71.53333;AF;12120
1148311;Asadābād;34.87311;71.14697;AF;48400
1148658;Andkhōy;36.95293;65.12376;AF;29208
1148709;Anār Darah;32.7587;61.65397;AF;10023
1149052;‘Alāqahdārī Dīshū;30.43206;63.29802;AF;9196
1429434;Bāzārak;35.31292;69.51519;AF;65000
1456960;Maydanshakhr;34.39561;68.86618;AF;1600
1469706;Markaz-e Woluswalī-ye Āchīn;34.12583;70.70778;AF;15098
8534261;Sharan;33.17568;68.73045;AF;2200
3576022;Saint John’s;17.12096;-61.84329;AG;24226
3576057;Piggotts;17.11667;-61.8;AG;1878
3576074;Parham;17.09682;-61.77046;AG;969
3576260;Falmouth;17.02741;-61.78136;AG;619
3576311;Codrington;17.63333;-61.83333;AG;1325
3576361;Bolands;17.06565;-61.87466;AG;1657
3573364;West End Village;18.17191;-63.14941;AI;0
3573374;The Valley;18.21704;-63.05783;AI;2035
3573375;The Quarter;18.20799;-63.04178;AI;0
3573378;Farrington;18.215;-63.02238;AI;0
3573380;Stoney Ground;18.22026;-63.04607;AI;0
3573385;South Hill Village;18.19201;-63.08779;AI;0
3573407;Sandy Ground Village;18.20118;-63.08998;AI;274
3573418;North Side;18.22919;-63.04401;AI;0
3573420;North Hill Village;18.20542;-63.07847;AI;0
3573456;Island Harbour;18.25601;-63.0102;AI;0
3573466;George Hill;18.19939;-63.0665;AI;0
3573473;East End Village;18.23333;-63;AI;0
3573496;Blowing Point Village;18.17648;-63.09375;AI;942
11205445;Sandy Hill;18.22104;-63.01329;AI;0
363243;Sarandë;39.87534;20.00477;AL;15147
781443;Tepelenë;40.29583;20.01917;AL;11955
781979;Poliçan;40.61222;20.09806;AL;10663
781988;Pogradec;40.9025;20.6525;AL;61530
782061;Peshkopi;41.685;20.42889;AL;14848
782070;Përmet;40.23361;20.35167;AL;10686
782661;Kukës;42.07694;20.42194;AL;17832
782756;Korçë;40.61861;20.78083;AL;58259
783059;Gramsh;40.86972;20.18444;AL;11556
783148;Gjirokastër;40.07583;20.13889;AL;23437
783259;Ersekë;40.33778;20.67889;AL;7890
783263;Elbasan;41.1125;20.08222;AL;100903
783408;Çorovodë;40.50417;20.22722;AL;14046
783493;Burrel;41.61028;20.00889;AL;15405
783508;Bulqizë;41.49167;20.22194;AL;11212
783606;Bilisht;40.6275;20.99;AL;7114
832209;Librazhd-Qendër;41.19694;20.33556;AL;12691
3183719;Vlorë;40.4686;19.48318;AL;89546
3183875;Tirana;41.3275;19.81889;AL;374801
3184081;Shkodër;42.06828;19.51258;AL;88245
3184099;Shijak;41.34556;19.56722;AL;14138
3184197;Selenicë;40.53056;19.63583;AL;6912
3184252;Rrogozhinë;41.07639;19.66528;AL;5620
3184264;Rrëshen;41.7675;19.87556;AL;10064
3184290;Roskovec;40.7375;19.70222;AL;6657
3184388;Pukë;42.04444;19.89972;AL;6495
3184497;Peqin;41.04611;19.75111;AL;7513
3184517;Patos Fshat;40.64278;19.65083;AL;22679
3184518;Patos;40.68333;19.61944;AL;60000
3184806;Mamurras;41.5775;19.69222;AL;8282
3184862;Lushnjë;40.94194;19.705;AL;41469
3184935;Lezhë;41.78361;19.64361;AL;18695
3185012;Laç;41.63556;19.71306;AL;24825
3185060;Kuçovë;40.80028;19.91667;AL;18166
3185082;Krujë;41.50917;19.79278;AL;21286
3185211;Kavajë;41.18556;19.55694;AL;29354
3185270;Kamëz;41.38167;19.76028;AL;11026
3185638;Fushë-Krujë;41.47833;19.71778;AL;10458
3185670;Fier-Çifçi;40.71667;19.56667;AL;60995
3185672;Fier;40.72389;19.55611;AL;56297
3185728;Durrës;41.32355;19.45469;AL;122034
3185897;Cërrik;41.03167;19.97583;AL;14269
3186084;Berat;40.70583;19.95222;AL;46866
3186145;Ballsh;40.59889;19.73472;AL;10361
174710;Yeghegnadzor;39.76389;45.33239;AM;8200
174725;Vedi;39.91388;44.7251;AM;12192
174726;Vayk’;39.6889;45.46668;AM;5419
174875;Kapan;39.20755;46.40576;AM;33160
174895;Goris;39.51111;46.34168;AM;20379
174972;Hats’avan;39.46405;45.97047;AM;15208
174979;Artashat;39.96144;44.54447;AM;20562
174991;Ararat;39.83069;44.70569;AM;28832
616052;Yerevan;40.18111;44.51361;AM;1093485
616062;Vagharshapat;40.16557;44.29462;AM;46540
616065;Yeghvard;40.32507;44.48608;AM;10705
616108;Vardenis;40.18329;45.73053;AM;11382
616109;Vardenik;40.13348;45.44311;AM;7709
616178;Tashir;41.12072;44.28462;AM;7318
616194;Step’anavan;41.00995;44.38531;AM;23782
616199;Spitak;40.83221;44.26731;AM;15059
616250;Sevan;40.5473;44.94171;AM;17083
616255;Sarukhan;40.29169;45.13068;AM;6173
616328;Sardarapat;40.13206;44.00969;AM;5348
616333;Noyemberyan;41.17244;44.99917;AM;5119
616361;Noratus;40.37793;45.18048;AM;5426
616375;Nerk’in Getashen;40.14172;45.27087;AM;7010
616417;Metsamor;40.07233;44.29169;AM;8789
616435;Masis;40.06542;44.41618;AM;18911
616438;Martuni;40.13892;45.30548;AM;11037
616530;Vanadzor;40.80456;44.4939;AM;101098
616576;Karanlukh;40.10444;45.28972;AM;5104
616599;Gavarr;40.35398;45.12386;AM;21680
616627;Ijevan;40.87877;45.14851;AM;14737
616629;Hrazdan;40.49748;44.7662;AM;40795
616631;Armavir;40.15446;44.03815;AM;25963
616635;Gyumri;40.7942;43.84528;AM;148381
616697;Garrni;40.11931;44.73442;AM;6827
616752;Dilijan;40.7417;44.8501;AM;13478
616786;Chambarak;40.59655;45.35498;AM;6153
616790;Byureghavan;40.31417;44.59333;AM;6972
616802;Berd;40.88135;45.38901;AM;8374
616877;Ashtarak;40.2991;44.36204;AM;18779
616953;Aparan;40.59323;44.3589;AM;5670
616974;Alaverdi;41.09766;44.67316;AM;13184
616989;Akhuryan;40.78003;43.90027;AM;7672
617026;Abovyan;40.27368;44.63348;AM;35673
145531;Saurimo;-9.66078;20.39155;AO;40498
145724;Lucapa;-8.41915;20.74466;AO;20115
876177;Luau;-10.70727;22.22466;AO;18465
876233;Léua;-11.65;20.45;AO;5168
2236568;Uíge;-7.60874;15.06131;AO;60008
2236967;Soio;-6.1349;12.36894;AO;67491
2239001;N'zeto;-7.23116;12.8666;AO;18352
2239076;N’dalatando;-9.29782;14.91162;AO;383100
2239520;Mbanza Kongo;-6.26703;14.2401;AO;24220
2239862;Malanje;-9.54015;16.34096;AO;87046
2240449;Luanda;-8.83682;13.23432;AO;2776168
2242001;Caxito;-8.57848;13.66425;AO;28224
2242885;Camabatela;-8.18812;15.37495;AO;12837
2243271;Cabinda;-5.55;12.2;AO;66020
3345497;Uacu Cungo;-11.35669;15.11719;AO;10970
3346015;Sumbe;-11.20605;13.84371;AO;33277
3346598;Quibala;-10.73366;14.97995;AO;8915
3346821;Ondjiva;-17.06667;15.73333;AO;10169
3347019;Namibe;-15.19611;12.15222;AO;80149
3347353;Menongue;-14.6585;17.69099;AO;32203
3347719;Luena;-11.78333;19.91667;AO;21115
3347762;Lubango;-14.91717;13.4925;AO;102541
3347853;Longonjo;-12.90667;15.25333;AO;24346
3347939;Lobito;-12.3644;13.53601;AO;207932
3348078;Cuito;-12.38333;16.93333;AO;113624
3348313;Huambo;-12.77611;15.73917;AO;226145
3349580;Chissamba;-12.16667;17.33333;AO;7677
3350246;Catumbela;-12.43002;13.54677;AO;16977
3350372;Catabola;-12.15;17.28333;AO;18855
3351014;Camacupa;-12.01667;17.48333;AO;19150
3351380;Caconda;-13.73333;15.06667;AO;10549
3351500;Caála;-12.8525;15.56056;AO;21205
3351663;Benguela;-12.57626;13.40547;AO;151226
9376229;Chela;-12.30261;15.43358;AO;5811
3427213;Zárate;-34.09814;-59.02858;AR;88781
3427327;Wanda;-25.96879;-54.56285;AR;15529
3427387;Villa Ortúzar;-34.57973;-58.46829;AR;22500
3427388;Villa Ocampo;-28.48752;-59.35515;AR;19101
3427399;Villa María Grande;-31.66565;-59.90182;AR;7101
3427408;Villa Lugano;-34.67907;-58.47263;AR;114000
3427420;Villa Hernandarias;-31.23097;-59.98464;AR;5375
3427428;Villaguay;-31.8653;-59.02689;AR;32027
3427431;Villa Gesell;-37.26394;-56.97304;AR;23257
3427443;Villa Elisa;-32.1632;-58.40082;AR;9334
3427453;Villa de Mayo;-34.5108;-58.68059;AR;43405
3427537;Veinticinco de Mayo;-27.37679;-54.74312;AR;11928
3427582;Urdinarrain;-32.68573;-58.89323;AR;7992
3427687;Tortuguitas;-34.47513;-58.75367;AR;41390
3427761;Tigre;-34.42603;-58.57962;AR;31106
3427833;Tandil;-37.32167;-59.13316;AR;104325
3428068;San Vicente;-26.61667;-54.13333;AR;38247
3428071;Santo Tomé;-28.54939;-56.04077;AR;22634
3428079;Santo Pipó;-27.14132;-55.40867;AR;5447
3428182;Santa Rosa;-28.26318;-58.11891;AR;8330
3428287;Santa Lucía;-28.98746;-59.10287;AR;14056
3428359;Santa Elena;-30.94432;-59.78832;AR;18410
3428481;San Salvador;-31.62487;-58.50524;AR;11626
3428576;San Pedro;-33.67918;-59.66633;AR;47452
3428577;San Pedro;-26.62207;-54.10842;AR;23736
3428644;San Miguel;-27.99585;-57.58964;AR;7396
3428708;San Luis del Palmar;-27.5079;-58.55454;AR;15347
3428759;San Lorenzo;-28.13306;-58.76733;AR;47626
3428858;San José de Feliciano;-30.38452;-58.75167;AR;11137
3428928;San José;-27.76979;-55.7826;AR;6452
3428975;San Javier;-30.57781;-59.9317;AR;15606
3428992;San Isidro;-34.4721;-58.52708;AR;45190
3429160;San Clemente del Tuyú;-36.35694;-56.72351;AR;11174
3429403;Saladas;-28.25384;-58.62591;AR;18349
3429439;Rosario del Tala;-32.30286;-59.14545;AR;13807
3429576;Retiro;-34.58333;-58.38333;AR;38635
3429577;Resistencia;-27.46056;-58.98389;AR;387158
3429594;Reconquista;-29.15;-59.65;AR;90184
3429652;Quilmes;-34.72904;-58.26374;AR;230000
3429713;Puerto Vilelas;-27.51414;-58.93906;AR;8455
3429721;Puerto Tirol;-27.37218;-59.08206;AR;9767
3429732;Puerto Rico;-26.79598;-55.02402;AR;17491
3429738;Puerto Piray;-26.46937;-54.70736;AR;8557
3429764;Puerto Libertad;-25.91958;-54.58229;AR;6143
3429777;Puerto Iguazú;-25.59912;-54.57355;AR;32038
3429786;Puerto Esperanza;-26.02267;-54.61356;AR;15579
3429790;Puerto Eldorado;-26.40843;-54.69463;AR;54189
3429866;Presidencia de la Plaza;-27.00147;-59.84243;AR;12231
3429886;Posadas;-27.36708;-55.89608;AR;323739
3429902;Pontevedra;-34.74785;-58.70072;AR;33515
3429949;Pirané;-25.73239;-59.10879;AR;19124
3429980;Pilar;-34.45866;-58.9142;AR;226517
3430029;Perugorría;-29.34132;-58.61059;AR;5685
3430104;Paso de los Libres;-29.71251;-57.08771;AR;43805
3430105;Paso de la Patria;-27.31676;-58.57197;AR;5818
3430178;Panambí;-27.72369;-54.91515;AR;5970
3430180;Pampa del Indio;-26.04982;-59.93728;AR;11588
3430186;Palo Santo;-25.56332;-59.33781;AR;5324
3430340;Oberá;-27.48706;-55.11994;AR;56528
3430402;Nuestra Señora del Rosario de Caa Catí;-27.75072;-57.62073;AR;7573
3430443;Necochea;-38.5545;-58.73961;AR;80478
3430513;Muñiz;-34.55622;-58.70739;AR;26221
3430545;Morón;-34.6509;-58.61956;AR;319934
3430598;Monte Caseros;-30.25359;-57.63626;AR;24671
3430601;Montecarlo;-26.5662;-54.757;AR;22229
3430648;Mocoretá;-30.61891;-57.96344;AR;6088
3430697;Merlo;-34.66627;-58.72927;AR;244168
3430708;Mercedes;-34.65145;-59.43068;AR;52949
3430709;Mercedes;-29.18416;-58.07519;AR;30649
3430760;Mburucuyá;-28.04532;-58.22835;AR;9012
3430857;Margarita Belén;-27.2616;-58.97219;AR;5547
3430863;Mar del Plata;-38.00042;-57.5562;AR;553935
3430940;Malabrigo;-29.34636;-59.96957;AR;7026
3430968;Maciá;-32.1722;-59.39947;AR;5806
3430988;Luján;-34.57028;-59.105;AR;81749
3431057;Los Polvorines;-34.50316;-58.70596;AR;53354
3431606;Las Toscas;-28.3529;-59.25795;AR;11811
3431916;Larroque;-33.03595;-59.00125;AR;6200
3432043;La Plata;-34.92145;-57.95453;AR;694167
3432079;La Paz;-30.74179;-59.64517;AR;24716
3432355;La Leonesa;-27.03786;-58.70347;AR;10067
3432760;La Cruz;-29.17443;-56.64326;AR;8591
3433349;Jardín América;-27.04346;-55.22698;AR;24905
3433363;Itatí;-27.27043;-58.24458;AR;7902
3433513;Ibarreta;-25.21438;-59.85851;AR;8687
3433522;Hurlingham;-34.5904;-58.62904;AR;60000
3433658;Gualeguaychú;-33.00937;-58.51722;AR;78676
3433663;Gualeguay;-33.14156;-59.30966;AR;33120
3433715;Goya;-29.13995;-59.26343;AR;70245
3433743;Gobernador Roca;-27.18636;-55.46433;AR;6315
3433753;Gobernador Virasora;-28.05;-56.03333;AR;28756
3433787;General Pacheco;-34.45256;-58.64312;AR;43287
3433803;General José de San Martín;-26.53743;-59.34158;AR;31758
3433836;Garupá;-27.48171;-55.82921;AR;28814
3433839;Garuhapé;-26.81768;-54.95665;AR;8259
3433899;Formosa;-26.18489;-58.17313;AR;221383
3433901;Fontana;-27.41813;-59.02392;AR;26745
3433956;Federal;-30.95465;-58.78326;AR;16333
3433959;Federación;-31.00621;-57.89962;AR;13789
3434095;Esquina;-30.01476;-59.5289;AR;26399
3434291;El Soberbio;-27.29847;-54.19877;AR;19571
3434731;El Colorado;-26.30808;-59.37291;AR;12780
3434932;El Alcázar;-26.71459;-54.81523;AR;5127
3434995;Dos de Mayo;-27.02277;-54.68669;AR;14544
3435010;Don Torcuato;-34.49459;-58.62729;AR;64867
3435038;Dolores;-36.31321;-57.67918;AR;25190
3435103;Curuzú Cuatiá;-29.79171;-58.0546;AR;36390
3435217;Corrientes;-27.46784;-58.8344;AR;339067
3435261;Concordia;-31.39296;-58.02089;AR;145210
3435264;Concepción del Uruguay;-32.48463;-58.23217;AR;67895
3435266;Concepción de la Sierra;-27.98311;-55.52031;AR;7398
3435283;Comandante Fontana;-25.33453;-59.68212;AR;5655
3435344;Colonia Aurora;-27.47428;-54.52498;AR;8407
3435356;Colegiales;-34.57365;-58.44924;AR;57000
3435364;Clorinda;-25.28481;-57.71851;AR;15000
3435486;Chajarí;-30.75048;-57.97962;AR;30655
3435532;Cerro Azul;-27.6331;-55.4962;AR;5323
3435701;Capioví;-26.92998;-55.06084;AR;5860
3435734;Candelaria;-27.4595;-55.74536;AR;11039
3435750;Campo Viera;-27.33271;-55.05651;AR;9228
3435765;Campo Ramón;-27.4549;-55.02122;AR;10088
3435789;Campo Grande;-27.2077;-54.97977;AR;12040
3435810;Campana;-34.16327;-58.95919;AR;81612
3435910;Buenos Aires;-34.61315;-58.37723;AR;13076300
3435966;Bovril;-31.34311;-59.44512;AR;7977
3436003;Boedo;-34.63333;-58.41667;AR;48231
3436030;Bernardo de Irigoyen;-26.2552;-53.64581;AR;10889
3436043;Berazategui;-34.76531;-58.21278;AR;167498
3436077;Belgrano;-34.5627;-58.45829;AR;138942
3436124;Barranqueras;-27.48132;-58.93925;AR;50823
3436134;Barracas;-34.64966;-58.38341;AR;77474
3436177;Balcarce;-37.84616;-58.25522;AR;38823
3436199;Azul;-36.77698;-59.85854;AR;53941
3436230;Avellaneda;-29.11761;-59.65834;AR;23077
3436287;Aristóbulo del Valle;-27.09625;-54.89626;AR;20683
3436370;Alvear;-29.09683;-56.55043;AR;7917
3436448;Alba Posse;-27.56978;-54.68262;AR;6652
3832132;Zapala;-38.89916;-70.05442;AR;31534
3832189;Yuto;-23.64342;-64.47194;AR;7732
3832260;Yerba Buena;-26.81667;-65.31667;AR;50783
3832376;Yacimiento Río Turbio;-51.57321;-72.3508;AR;6650
3832647;Villa Regina;-39.1;-67.06667;AR;31209
3832653;Villa Paula de Sarmiento;-31.4933;-68.53838;AR;19092
3832658;Villa Ojo de Agua;-29.50003;-63.69377;AR;5832
3832662;Villa Nueva;-32.43293;-63.24763;AR;16841
3832694;Villa María;-32.40751;-63.24016;AR;92453
3832711;Villa La Angostura;-40.76173;-71.64631;AR;7526
3832719;Villa Huidobro;-34.83826;-64.58686;AR;5155
3832734;Villa General Belgrano;-31.97828;-64.55627;AR;5888
3832756;Villa Dolores;-31.94585;-65.18958;AR;28009
3832759;Villa de Soto;-30.85523;-64.99947;AR;7303
3832763;Villa del Totoral;-30.81667;-63.71667;AR;7110
3832778;Villa Constitución;-33.22778;-60.3297;AR;44271
3832783;Chañar Ladeado;-33.32524;-62.03831;AR;5639
3832791;Villa Carlos Paz;-31.42414;-64.49778;AR;69451
3832793;Villa Cañás;-34.00565;-61.60757;AR;9328
3832797;Villa Berthet;-27.29174;-60.41263;AR;12029
3832811;Villa Ángela;-27.57383;-60.71526;AR;43511
3832815;Villa Allende;-31.29458;-64.29538;AR;21683
3832899;Viedma;-40.81345;-62.99668;AR;48940
3832917;Vicuña Mackenna;-33.91965;-64.39215;AR;8994
3832923;Victorica;-36.21505;-65.43586;AR;6565
3832934;Victoria;-32.61841;-60.15478;AR;25139
3832959;Viale;-31.86782;-60.00722;AR;8939
3833027;Vera;-29.4593;-60.21261;AR;19797
3833062;Venado Tuerto;-33.74556;-61.96885;AR;72340
3833111;Veinticinco de Mayo;-37.7741;-67.71638;AR;6962
3833112;Veinticinco de Mayo;-35.4323;-60.17271;AR;24668
3833211;Valle Hermoso;-31.11732;-64.48084;AR;5486
3833367;Ushuaia;-54.81084;-68.31591;AR;58028
3833412;Unquillo;-31.23073;-64.31615;AR;15369
3833675;Trevelin;-43.0858;-71.46386;AR;6395
3833794;Tres Isletas;-26.34067;-60.43207;AR;24747
3833859;Tres Arroyos;-38.37394;-60.27978;AR;47136
3833883;Trelew;-43.24895;-65.30505;AR;93442
3833947;Trancas;-26.23136;-65.28093;AR;6658
3833995;Totoras;-32.5844;-61.16852;AR;9587
3834048;Tostado;-29.23202;-61.76917;AR;14000
3834361;Tinogasta;-28.06319;-67.56488;AR;14509
3834397;Tilisarao;-32.73292;-65.29109;AR;5478
3834403;Tilcara;-23.57817;-65.39516;AR;5640
3834502;Termas de Río Hondo;-27.49362;-64.85972;AR;27838
3834601;Tartagal;-22.51637;-63.80131;AR;60819
3834665;Tancacha;-32.24309;-63.9807;AR;5184
3834813;Tafí Viejo;-26.73201;-65.25921;AR;48459
3834843;Taco Pozo;-25.61557;-63.26708;AR;8470
3834961;Suncho Corral;-27.93357;-63.42938;AR;6087
3834971;Sunchales;-30.94404;-61.56148;AR;18757
3835238;Simoca;-27.26272;-65.35647;AR;7939
3835297;Sierra Grande;-41.60603;-65.35574;AR;6978
3835372;Senillosa;-39.01412;-68.43281;AR;6394
3835695;Sastre;-31.76762;-61.82887;AR;5521
3835710;Sarmiento;-45.58815;-69.06996;AR;8292
3835793;Santo Tomé;-31.66274;-60.7653;AR;59072
3835869;Santiago del Estero;-27.79511;-64.26149;AR;354692
3835921;Santa Sylvina;-27.83261;-61.13747;AR;9040
3835938;Santa Rosa de Río Primero;-31.15231;-63.40191;AR;6788
3835943;Santa Rosa de Calamuchita;-32.06905;-64.53631;AR;9504
3835994;Santa Rosa;-36.61667;-64.28333;AR;111424
3836194;Santa Lucía;-31.53987;-68.49503;AR;43565
3836277;Santa Fe;-31.64881;-60.70868;AR;489505
3836564;San Salvador de Jujuy;-24.19457;-65.29712;AR;305891
3836620;San Ramón de la Nueva Orán;-23.13705;-64.32426;AR;74059
3836669;San Rafael;-34.61772;-68.33007;AR;109163
3836772;San Pedro de Jujuy;-24.23127;-64.86614;AR;58430
3836846;San Nicolás de los Arroyos;-33.33425;-60.2108;AR;127742
3836873;San Miguel de Tucumán;-26.82414;-65.2226;AR;781023
3836951;San Martín de los Andes;-40.15789;-71.35337;AR;23519
3836992;San Martín;-33.08103;-68.46814;AR;82549
3836993;San Martín;-31.42957;-68.50065;AR;10140
3837056;San Luis;-33.29501;-66.33563;AR;183982
3837124;San Justo;-30.78913;-60.59189;AR;21809
3837213;San Juan;-31.5375;-68.53639;AR;447048
3837240;San José de Jáchal;-30.24057;-68.74693;AR;21018
3837441;San Jorge;-31.89618;-61.85984;AR;16873
3837675;San Francisco;-31.42797;-62.08266;AR;59062
3837702;San Fernando del Valle de Catamarca;-28.46957;-65.78524;AR;188812
3837823;San Cristóbal;-30.31053;-61.23724;AR;14286
3837857;San Carlos Centro;-31.72864;-61.09192;AR;10465
3837943;San Bernardo;-27.28782;-60.71252;AR;11101
3837956;San Benito;-31.78371;-60.44156;AR;6771
3837980;San Antonio Oeste;-40.73193;-64.94769;AR;16966
3838158;San Agustín de Valle Fértil;-30.63353;-67.46821;AR;6864
3838201;Sampacho;-33.3839;-64.72211;AR;7238
3838233;Salta;-24.7859;-65.41166;AR;512686
3838235;Salsipuedes;-31.13725;-64.29589;AR;6411
3838506;Rufino;-34.26827;-62.71262;AR;18361
3838583;Rosario;-32.94682;-60.63932;AR;1173533
3838638;Roldán;-32.89846;-60.90681;AR;12468
3838793;Río Tercero;-32.17301;-64.11405;AR;53389
3838797;Río Segundo;-31.6526;-63.9099;AR;18155
3838854;Río Grande;-53.78769;-67.70946;AR;52681
3838859;Río Gallegos;-51.62261;-69.21813;AR;85700
3838874;Río Cuarto;-33.13067;-64.34992;AR;153757
3838902;Río Ceballos;-31.16486;-64.32241;AR;16632
3839262;Recreo;-31.49076;-60.73299;AR;12798
3839263;Recreo;-29.28184;-65.06096;AR;14204
3839282;Realicó;-35.03658;-64.2447;AR;7151
3839307;Rawson;-43.30016;-65.10228;AR;26335
3839479;Rafaela;-31.25033;-61.4867;AR;88713
3839482;Rada Tilly;-45.92462;-67.55424;AR;6208
3839490;Quitilipi;-26.86913;-60.21683;AR;32083
3839565;Quimilí;-27.64615;-62.41655;AR;10959
3839982;Punta Alta;-38.87588;-62.07359;AR;57209
3840082;San Julián;-49.30554;-67.72743;AR;6143
3840092;Puerto Madryn;-42.7692;-65.03851;AR;64555
3840104;Puerto Deseado;-47.75034;-65.89382;AR;10237
3840300;Presidencia Roque Sáenz Peña;-26.78522;-60.43876;AR;81879
3840470;Pozo del Molle;-32.0186;-62.91984;AR;5429
3840860;Pocito;-31.68333;-68.58333;AR;40969
3840885;Plottier;-38.96667;-68.23333;AR;25186
3840896;Plaza Huincul;-38.92598;-69.20863;AR;12273
3841149;Pilar;-31.6789;-63.87964;AR;12488
3841309;Pico Truncado;-46.7949;-67.95731;AR;14985
3841490;Pergamino;-33.88995;-60.57357;AR;87652
3841500;Pérez;-32.99835;-60.76791;AR;24436
3841956;Paraná;-31.73271;-60.52897;AR;262295
3842142;Pampa del Infierno;-26.50517;-61.17436;AR;8176
3842190;Palpalá;-24.25647;-65.21163;AR;48199
3842268;Palma Sola;-23.97771;-64.30311;AR;5318
3842621;Oncativo;-31.91353;-63.68201;AR;12660
3842662;Oliva;-32.04158;-63.56978;AR;11629
3842670;Olavarría;-36.89272;-60.32254;AR;86320
3842881;Nueve de Julio;-35.44437;-60.88313;AR;34718
3842882;Nueve de Julio;-31.66914;-68.39023;AR;7652
3843123;Neuquén;-38.95161;-68.0591;AR;242092
3843619;Morteros;-30.71164;-61.99862;AR;15129
3843803;Monteros;-27.16741;-65.49832;AR;23771
3843830;Monte Maíz;-33.20462;-62.60085;AR;6920
3843871;Monte Cristo;-31.34312;-63.94437;AR;6914
3843881;Monte Buey;-32.91642;-62.45669;AR;5497
3844229;Mina Clavero;-31.72101;-65.00619;AR;6855
3844377;Merlo;-32.34288;-65.01396;AR;11159
3844421;Mendoza;-32.89084;-68.82717;AR;876884
3844899;Marcos Juárez;-32.6978;-62.10672;AR;24226
3845073;Malvinas Argentinas;-31.38194;-64.05545;AR;8628
3845202;Malagueño;-31.46467;-64.3584;AR;9364
3845330;Machagai;-26.92614;-60.04955;AR;28070
3846175;Los Frentones;-26.4077;-61.41367;AR;6610
3846514;Los Altos;-28.04845;-65.49945;AR;6421
3846864;Lincoln;-34.86649;-61.5302;AR;41808
3846915;Libertador General San Martín;-23.80644;-64.78757;AR;49267
3846991;Leones;-32.66174;-62.29678;AR;9971
3847482;La Toma;-33.05258;-65.62385;AR;6663
3847613;Las Varillas;-31.87208;-62.71946;AR;14649
3847836;Las Rosas;-32.47661;-61.58041;AR;12793
3847933;Las Parejas;-32.68478;-61.51637;AR;11317
3848164;Las Lomitas;-24.70955;-60.59303;AR;10354
3848209;Las Lajitas;-24.72762;-64.19335;AR;9151
3848343;Las Higueras;-33.09231;-64.28899;AR;5282
3848353;Las Heras;-46.54186;-68.93593;AR;9303
3848687;Las Breñas;-27.08966;-61.08161;AR;26955
3848950;La Rioja;-29.41105;-66.85067;AR;162620
3849140;La Quiaca;-22.10236;-65.59299;AR;14751
3850005;Lamarque;-39.42304;-65.70208;AR;7819
3850920;Laguna Paiva;-31.30391;-60.65894;AR;12250
3850929;Laguna Larga;-31.77652;-63.80104;AR;7137
3851331;La Falda;-31.08841;-64.48987;AR;15112
3851798;La Cumbre;-30.98201;-64.49139;AR;7235
3851985;La Cocha;-27.76927;-65.58711;AR;7066
3852279;La Carlota;-33.41993;-63.29769;AR;11490
3852374;La Calera;-31.34377;-64.33529;AR;24796
3852468;Laboulaye;-34.12662;-63.39119;AR;19908
3852480;Laborde;-33.15319;-62.85661;AR;5492
3853330;Justo Daract;-33.8594;-65.18277;AR;9680
3853331;Justiniano Posse;-32.88411;-62.67788;AR;7406
3853350;Junín de los Andes;-39.95043;-71.06936;AR;10592
3853354;Junín;-34.58382;-60.94332;AR;85007
3853491;Joaquín V. González;-25.11364;-64.12628;AR;19185
3853510;Jesús María;-30.98153;-64.09424;AR;26825
3853745;Intendente Alvear;-35.23383;-63.59205;AR;6990
3853767;Ingenio La Esperanza;-24.22554;-64.83896;AR;5002
3853782;Ingeniero Luis A. Huergo;-39.07146;-67.2379;AR;6483
3853786;Ingeniero Jacobacci;-41.3292;-69.55015;AR;5785
3853788;Ingeniero Guillermo N. Juárez;-23.9;-61.85;AR;10357
3853935;Icaño;-28.91934;-65.32817;AR;6857
3853967;Humahuaca;-23.20544;-65.35048;AR;11369
3853974;Huinca Renancó;-34.84038;-64.3758;AR;8637
3853981;Huillapima;-28.72533;-65.9787;AR;7779
3854008;Huerta Grande;-31.07524;-64.49063;AR;5630
3854331;Hernando;-32.42657;-63.73333;AR;10486
3854336;Hermoso Campo;-27.60816;-61.34441;AR;7435
3854493;Guatraché;-37.66776;-63.53021;AR;5271
3854724;Graneros;-27.64934;-65.4383;AR;5263
3854895;Granadero Baigorria;-32.85683;-60.71754;AR;32427
3854985;Gobernador Gálvez;-33.03016;-60.64045;AR;74650
3855041;General Villegas;-35.03285;-63.01252;AR;16270
3855065;General Roca;-39.03333;-67.58333;AR;73212
3855067;General Ramírez;-32.17601;-60.20079;AR;8614
3855074;General Pinedo;-27.31667;-61.28333;AR;15741
3855075;General Pico;-35.65662;-63.75682;AR;57029
3855098;General Levalle;-34.01472;-63.92413;AR;5492
3855114;General Fernández Oro;-38.95297;-67.92489;AR;6813
3855116;General Enrique Mosconi;-22.59588;-63.81255;AR;19811
3855121;General Conesa;-40.10408;-64.45592;AR;5595
3855124;General Cabrera;-32.81313;-63.87243;AR;10351
3855143;General Acha;-37.37698;-64.60431;AR;12536
3855244;Gálvez;-32.02927;-61.22103;AR;18374
3855284;Gaimán;-43.2897;-65.4929;AR;5753
3855302;Funes;-32.91568;-60.80995;AR;14750
3855368;Fray Luis Beltrán;-39.31369;-65.76002;AR;6401
3855370;Fray Luis A. Beltrán;-32.79122;-60.72819;AR;14390
3855394;Fraile Pintado;-23.94079;-64.79943;AR;13682
3855554;Firmat;-33.45937;-61.4832;AR;18294
3855588;Fiambalá;-27.67225;-67.6187;AR;8061
3855666;Famaillá;-27.05413;-65.40329;AR;30951
3855974;Esquel;-42.91147;-71.31947;AR;28486
3856022;Esperanza;-31.4488;-60.93173;AR;35885
3856231;Embarcación;-23.21003;-64.09965;AR;23961
3856235;Embalse;-32.18;-64.41809;AR;15900
3856436;El Trébol;-32.2008;-61.7014;AR;10871
3857012;El Quebrachal;-25.28333;-64.06667;AR;10243
3857974;El Galpón;-25.38069;-64.65259;AR;8357
3858553;El Carril;-25.0741;-65.49174;AR;9780
3858677;El Calafate;-50.34075;-72.27682;AR;8000
3858765;El Bolsón;-41.96051;-71.53336;AR;15537
3859036;Eduardo Castex;-35.91501;-64.29448;AR;9861
3859384;Diamante;-32.06641;-60.63837;AR;19545
3859409;Devoto;-31.40431;-62.30634;AR;5597
3859429;Despeñaderos;-31.81626;-64.28989;AR;5645
3859512;Deán Funes;-30.42036;-64.34984;AR;20164
3859552;Cutral-Có;-38.93424;-69.23052;AR;47380
3859828;Cruz del Eje;-30.72644;-64.80387;AR;28166
3859839;Cruz Alta;-33.00887;-61.80746;AR;6862
3859904;Crespo;-32.02873;-60.30658;AR;18296
3859965;Cosquín;-31.24508;-64.46563;AR;19070
3859974;Corzuela;-26.95374;-60.96928;AR;10470
3860129;Corral de Bustos;-33.28205;-62.18463;AR;9882
3860164;Coronel Suárez;-37.45467;-61.93343;AR;27000
3860178;Coronel Moldes;-33.6227;-64.59711;AR;8104
3860197;Coronel Du Graty;-27.68038;-60.91462;AR;9140
3860199;Coronel Dorrego;-38.71867;-61.28733;AR;11644
3860217;Coronda;-31.97263;-60.91983;AR;16975
3860259;Córdoba;-31.4135;-64.18105;AR;1428214
3860419;Concepción del Bermejo;-26.59926;-60.94617;AR;5830
3860443;Comodoro Rivadavia;-45.86413;-67.49656;AR;140850
3861002;Clodomira;-27.5744;-64.13108;AR;9043
3861056;Cipolletti;-38.93392;-67.99032;AR;75078
3861061;Cinco Saltos;-38.82225;-68.06293;AR;19819
3861262;Chos Malal;-37.37809;-70.27085;AR;11721
3861329;Choele Choel;-39.28941;-65.6606;AR;9791
3861344;Chivilcoy;-34.89566;-60.01667;AR;54514
3861416;Chimbas;-31.48333;-68.53333;AR;73829
3861445;Chilecito;-29.16195;-67.4974;AR;42248
3861494;Chicoana;-25.10502;-65.53473;AR;8468
3861678;Charata;-27.21438;-61.18795;AR;27813
3861824;Chamical;-30.36002;-66.31399;AR;13383
3861953;Chacabuco;-34.64167;-60.47389;AR;34587
3861966;Cervantes;-39.05444;-67.39426;AR;5173
3862100;Ceres;-29.881;-61.94504;AR;13063
3862144;Centenario;-38.82955;-68.1318;AR;28956
3862240;Caucete;-31.65179;-68.28105;AR;33609
3862254;Catriel;-37.87907;-67.7956;AR;15169
3862320;Castelli;-25.94679;-60.61947;AR;36588
3862351;Casilda;-33.04417;-61.16806;AR;32002
3862655;Carcarañá;-32.85679;-61.15331;AR;15619
3862738;Capitán Bermúdez;-32.82262;-60.71852;AR;27060
3862761;Capilla del Monte;-30.86088;-64.52515;AR;9085
3862772;Capayán;-28.77436;-66.04749;AR;6358
3862883;Canals;-33.56542;-62.88927;AR;8343
3862981;Cañada de Gómez;-32.81636;-61.39493;AR;36000
3863095;Campo Largo;-26.80077;-60.84215;AR;10743
3863136;Campo Gallo;-26.58333;-62.85;AR;5455
3863362;Calingasta;-31.33394;-69.4208;AR;8176
3863366;Calilegua;-23.77368;-64.77002;AR;5174
3863379;Caleta Olivia;-46.43929;-67.52814;AR;36077
3863419;Calchaquí;-29.88767;-60.28697;AR;10221
3863491;Caimancito;-23.74069;-64.5937;AR;5403
3863503;Cafayate;-26.07286;-65.97766;AR;11785
3863833;Brinkmann;-30.86589;-62.03742;AR;8237
3864274;Berrotarán;-32.451;-64.38867;AR;6446
3864328;Beltrán;-27.82913;-64.06098;AR;5321
3864331;Bell Ville;-32.62591;-62.68873;AR;35105
3864375;Bella Vista;-27.03424;-65.30196;AR;15126
3864888;Balnearia;-31.0088;-62.66733;AR;5585
3865086;Bahía Blanca;-38.71959;-62.27243;AR;276546
3865186;Aviá Terai;-26.68532;-60.7292;AR;6821
3865385;Arroyo Seco;-33.15489;-60.50863;AR;20008
3865424;Arroyito;-31.42022;-63.05002;AR;19577
3865449;Armstrong;-32.78215;-61.60222;AR;10388
3865474;Arias;-33.64411;-62.40272;AR;6928
3865579;Arauco;-28.58071;-66.7925;AR;13720
3865605;Apolinario Saravia;-24.43276;-63.99535;AR;8595
3865802;Andalgalá;-27.58185;-66.31626;AR;14068
3865840;Añatuya;-28.46064;-62.83472;AR;20261
3866163;Alta Gracia;-31.65292;-64.42826;AR;40384
3866237;Almafuerte;-32.19296;-64.25559;AR;10534
3866242;Allen;-38.97736;-67.82714;AR;26083
3866367;Alderetes;-26.81667;-65.13333;AR;38466
3866425;Albardón;-31.43722;-68.52556;AR;20413
3866496;Aguilares;-27.4338;-65.61427;AR;32494
3866935;Adelia María;-33.63152;-64.02097;AR;6434
3867009;Abra Pampa;-22.72049;-65.69697;AR;9425
6693228;Balvanera;-34.61032;-58.39766;AR;152198
6693230;Villa Santa Rita;-34.61082;-58.481;AR;34000
7116866;Villa Mercedes;-33.67571;-65.45783;AR;96781
7284819;La Punta;-33.18368;-66.3127;AR;15000
7645166;San Miguel;-34.54335;-58.71229;AR;157532
7647007;San Carlos de Bariloche;-41.14557;-71.30822;AR;95394
8521759;Río Turbio;-51.53587;-72.33673;AR;6650
10172104;Adrogué;-34.80041;-58.38384;AR;28265
11147723;Ingeniero Pablo Nogués;-34.47775;-58.70652;AR;38470
12076997;José C. Paz;-34.51541;-58.76813;AR;230208
5881150;Taulaga;-11.05528;-171.08833;AS;37
5881165;Ta`ū;-14.23361;-169.51444;AS;873
5881192;Tāfuna;-14.33583;-170.72;AS;11017
5881576;Pago Pago;-14.27806;-170.7025;AS;11500
2601384;Neu-Guntramsdorf;48.0642;16.31573;AT;9071
2760523;Zirl;47.2741;11.23961;AT;8162
2760634;Zell am See;47.32306;12.79839;AT;7619
2760854;Wörgl;47.48906;12.06174;AT;13811
2760894;Wolfurt;47.46667;9.75;AT;8446
2760924;Wölfnitz;46.66639;14.25806;AT;5316
2761148;Wimpassing;48.16667;13.98333;AT;5748
2761164;Wilten;47.25829;11.38808;AT;18142
2761186;Wilhelmsburg;48.10571;15.60539;AT;6557
2761353;Wiener Neustadt;47.80485;16.23196;AT;44820
2761354;Wiener Neudorf;48.08278;16.31384;AT;9405
2761369;Vienna;48.20849;16.37208;AT;1691468
2761436;Wetzelsdorf;47.05293;15.39923;AT;15687
2761524;Wels;48.16667;14.03333;AT;16857
2761531;Weiz;47.21667;15.61667;AT;9221
2761669;Weinzierl bei Krems;48.4;15.6;AT;24092
2761834;Wattens;47.29419;11.5907;AT;7881
2761936;Waltendorf;47.06667;15.46667;AT;11960
2762150;Vösendorf;48.12107;16.34036;AT;6990
2762290;Vorchdorf;48.00388;13.92122;AT;7475
2762304;Völs;47.25;11.33333;AT;6738
2762316;Völkendorf;46.60806;13.83153;AT;5474
2762327;Voitsberg;47.04445;15.15313;AT;9403
2762372;Villach;46.61028;13.85583;AT;58882
2762375;Viktring;46.59194;14.26917;AT;9407
2763266;Tulln;48.32829;16.05858;AT;12421
2763332;Trofaiach;47.42524;15.00681;AT;7728
2763423;Traun;48.22086;14.23833;AT;11267
2763460;Traiskirchen;48.01485;16.29324;AT;6608
2763795;Ternitz;47.71565;16.03575;AT;7378
2763810;Telfs;47.30707;11.06817;AT;15229
2764175;Strasshof an der Nordbahn;48.31667;16.66667;AT;10009
2764178;Straßgang;47.03333;15.4;AT;16268
2764279;Stockerau;48.38333;16.21667;AT;16292
2764359;Steyr;48.04274;14.42127;AT;38331
2764759;Spratzern;48.17044;15.61844;AT;6376
2764786;Spittal an der Drau;46.8;13.5;AT;12880
2764951;Sollenau;47.89834;16.24833;AT;5038
2764958;Hall in Tirol;47.28333;11.51667;AT;13334
2765028;Simmering;48.18333;16.43333;AT;101420
2765207;Seiersberg;47;15.4;AT;7728
2765388;Schwechat;48.13333;16.46667;AT;12351
2765390;Schwaz;47.35169;11.71014;AT;13728
2766359;Sankt Veit an der Glan;46.76806;14.36028;AT;10841
2766365;Sankt Valentin;48.16667;14.51667;AT;9340
2766412;Sankt Ruprecht;46.6;14.31667;AT;7442
2766429;Sankt Pölten;48.2;15.63333;AT;21911
2766446;Sankt Peter;47.05;15.46667;AT;15187
2766447;Sankt Peter;46.62978;14.34016;AT;20320
2766522;Sankt Martin;46.61667;14.28333;AT;20000
2766525;Sankt Martin;48.23091;14.26781;AT;6984
2766636;Sankt Johann in Tirol;47.5233;12.4232;AT;9428
2766824;Salzburg;47.79941;13.04399;AT;153377
2766922;Saalfelden am Steinernen Meer;47.42681;12.848;AT;8688
2766971;Rum;47.28333;11.45;AT;9190
2767426;Ries;47.08315;15.485;AT;5819
2767471;Ried im Innkreis;48.21123;13.48855;AT;11903
2767511;Reutte;47.48333;10.71667;AT;6704
2767974;Rankweil;47.27108;9.64308;AT;11855
2768232;Purkersdorf;48.20769;16.17539;AT;9701
2768247;Puntigam;47.03333;15.43333;AT;8647
2768348;Pressbaum;48.18333;16.08333;AT;6237
2768442;Pradl;47.26539;11.4152;AT;32588
2768811;Pinkafeld;47.36667;16.11667;AT;5438
2769105;Perg;48.25;14.63333;AT;5812
2769110;Perchtoldsdorf;48.11935;16.26607;AT;15047
2769359;Ottakring;48.21667;16.3;AT;104627
2769623;Oberwart;47.28971;16.20595;AT;7288
2769874;Oberndorf bei Salzburg;47.95;12.93333;AT;5794
2770634;Neuzeug;48.05;14.33333;AT;5346
2770684;Neusiedl am See;47.94901;16.8417;AT;8235
2770711;Neunkirchen;47.72096;16.08107;AT;11461
2770750;Neuhofen an der Krems;48.13866;14.22764;AT;6269
2770993;Mürzzuschlag;47.6066;15.67226;AT;5975
2771133;Mühlau;47.28333;11.4;AT;5435
2771335;Mödling;48.08605;16.28921;AT;20555
2771557;Mistelbach;48.57;16.57667;AT;6463
2771619;Micheldorf in Oberösterreich;47.87764;14.13357;AT;5854
2771706;Meidling;48.16667;16.33333;AT;97624
2771814;Mattighofen;48.10732;13.15081;AT;6524
2771817;Mattersburg;47.73333;16.4;AT;6577
2771896;Mariatrost;47.1;15.5;AT;9631
2771940;Maria Enzersdorf;48.1;16.28333;AT;8829
2771962;Marchtrenk;48.19022;14.10908;AT;8394
2772173;Lustenau;47.42642;9.65851;AT;22821
2772345;Lochau;47.53333;9.75;AT;5747
2772400;Linz;48.30639;14.28611;AT;204846
2772480;Liezen;47.56667;14.23333;AT;6587
2772505;Lienz;46.8289;12.76903;AT;11572
2772522;Liebenau;47.03333;15.46667;AT;14447
2772537;Lichtenegg;48.15;14;AT;6163
2772620;Leopoldsdorf;48.11557;16.39126;AT;5078
2772649;Leoben;47.3765;15.09144;AT;8264
2772753;Leibnitz;46.78161;15.53836;AT;8533
2772827;Lauterach;47.47572;9.72941;AT;10267
2772998;Langenzersdorf;48.30432;16.36143;AT;8137
2773070;Landeck;47.13988;10.56593;AT;7725
2773215;Laakirchen;47.98188;13.82166;AT;9861
2773300;Kufstein;47.58333;12.16667;AT;9848
2773538;Kremsmünster;48.0529;14.12919;AT;6585
2773549;Krems an der Donau;48.40921;15.61415;AT;14473
2773653;Kottingbrunn;47.95096;16.22715;AT;7417
2773698;Korneuburg;48.35;16.33333;AT;12986
2773887;Knittelfeld;47.21667;14.81667;AT;11521
2773913;Klosterneuburg;48.30521;16.32522;AT;15614
2774326;Klagenfurt am Wörthersee;46.62472;14.30528;AT;90610
2774347;Kitzbühel;47.44637;12.39215;AT;8272
2774399;Kirchberg in Tirol;47.44539;12.31602;AT;5245
2774437;Kindberg;47.5;15.45;AT;5197
2774894;Kalsdorf bei Graz;46.96528;15.48028;AT;5171
2775013;Judendorf;47.4;15.1;AT;5475
2775020;Judenburg;47.16667;14.66667;AT;8481
2775093;Jenbach;47.39173;11.77245;AT;7120
2775220;Innsbruck;47.26266;11.39454;AT;132493
2775260;Innere Stadt;48.20906;16.37135;AT;16450
2775307;Imst;47.24504;10.73974;AT;10504
2775479;Hötting;47.26815;11.36868;AT;35043
2775516;Horn;48.66274;15.65663;AT;5494
2775531;Hörbranz;47.55;9.75;AT;6346
2775636;Hollabrunn;48.55;16.08333;AT;6882
2775742;Hohenems;47.36667;9.68306;AT;16317
2775950;Höchst;47.45934;9.6405;AT;7995
2776401;Himberg;48.08333;16.43333;AT;5331
2776421;Hietzing;48.18623;16.2965;AT;54265
2776488;Hernals;48.23333;16.26667;AT;57546
2776815;Hart;48.26526;14.25691;AT;5610
2776874;Hard;47.48306;9.68306;AT;13495
2776951;Hallein;47.68333;13.1;AT;7208
2776988;Hainburg an der Donau;48.14627;16.94504;AT;6570
2777038;Haid;48.20477;14.25107;AT;7424
2777087;Hafendorf;47.45653;15.31837;AT;6506
2777158;Haag;48.27063;14.26875;AT;5273
2777250;Guntramsdorf;48.04687;16.31384;AT;9179
2777836;Groß-Enzersdorf;48.20278;16.55083;AT;6616
2778067;Graz;47.06667;15.45;AT;222326
2778085;Gratkorn;47.13333;15.35;AT;6806
2778218;Götzis;47.33306;9.63306;AT;11473
2778255;Gösting;47.09788;15.39777;AT;11255
2778436;Gmunden;47.91839;13.79933;AT;13191
2778478;Gleisdorf;47.10559;15.71011;AT;6418
2778690;Gerasdorf bei Wien;48.29447;16.46765;AT;9442
2778877;Gänserndorf;48.33925;16.72016;AT;11404
2778966;Gallneukirchen;48.35363;14.41604;AT;6492
2779115;Fürstenfeld;47.05;16.08333;AT;6327
2779275;Freistadt;48.51103;14.50453;AT;7397
2779469;Floridsdorf;48.25;16.4;AT;162779
2779674;Feldkirch;47.23306;9.6;AT;33420
2780048;Enns;48.21346;14.47612;AT;9812
2780190;Eisenstadt;47.84565;16.52327;AT;9217
2780361;Eggenberg;47.07;15.39871;AT;20511
2780501;Ebreichsdorf;47.95579;16.40705;AT;5236
2780741;Dornbirn;47.41427;9.74195;AT;49278
2781017;Deutsch-Wagram;48.29972;16.56667;AT;8651
2781023;Deutschlandsberg;46.81528;15.22222;AT;8429
2781046;Deuchendorf;47.46593;15.32172;AT;5507
2781321;Brunn am Gebirge;48.10697;16.28466;AT;11864
2781371;Bruck an der Mur;47.41667;15.28333;AT;9093
2781373;Bruck an der Leitha;48.01667;16.76667;AT;6882
2781463;Breitenfurt bei Wien;48.13333;16.15;AT;5853
2781503;Bregenz;47.50311;9.7471;AT;29471
2781680;Bludenz;47.15476;9.82255;AT;13534
2781735;Bischofshofen;47.41667;13.21667;AT;7457
2781837;Berndorf;47.94567;16.10973;AT;9064
2782043;Bad Vöslau;47.96533;16.21359;AT;7469
2782054;Bad Hall;48.03832;14.20773;AT;5296
2782067;Baden;48.00543;16.23264;AT;26286
2782106;Axams;47.23111;11.27892;AT;5130
2782383;Arzl;47.28333;11.43333;AT;11082
2782492;Annabichl;46.65;14.31667;AT;11374
2782555;Amstetten;48.1229;14.87206;AT;15559
2782560;Amras;47.25;11.41667;AT;5771
2782728;Altach;47.35;9.65;AT;6624
2783058;Absam;47.29572;11.50593;AT;7112
3218464;Finkenstein am Faaker See;46.57904;13.93496;AT;8406
3233832;Attnang-Puchheim;48.00833;13.71667;AT;8908
6956545;Auen;46.59963;13.84389;AT;6563
8063098;Favoriten;48.16116;16.38233;AT;201882
8411059;Frastanz;47.21735;9.62995;AT;6434
8436496;Kirchbichl;47.51743;12.09629;AT;5855
11593866;Kirchenviertel;47.13124;15.34764;AT;5791
11694981;Oberhaid;48.17593;14.01495;AT;5100
11704364;Villacher Vorstadt;46.62368;14.28892;AT;8421
11746590;Lind;46.62244;13.84715;AT;5252
11746595;Villach-Innere Stadt;46.61275;13.84638;AT;8189
11903636;Donaustadt;48.2333;16.46002;AT;187007
11903637;Jakomini;47.05441;15.44984;AT;32912
11903638;Lend;47.08256;15.41589;AT;31147
11903639;Geidorf;47.08393;15.444;AT;24767
11903640;Sankt Leonhard;47.06924;15.45784;AT;15853
11903641;Andritz;47.11387;15.42348;AT;19020
11903642;Gries;47.06236;15.42421;AT;29363
2057575;Yanchep;-31.54678;115.63171;AU;8571
2058682;Wembley;-31.93308;115.81783;AU;11094
2058708;Wellard;-32.26667;115.83333;AU;8849
2059124;Wanneroo;-31.75;115.8;AU;11721
2060771;Swan View;-31.88333;116.05;AU;7735
2060886;Subiaco;-31.9485;115.8268;AU;9690
2060951;Strathalbyn;-35.25979;138.89247;AU;6348
2061224;Spearwood;-32.10534;115.77797;AU;9872
2061261;South Perth;-31.98333;115.86667;AU;11939
2061758;Seaton;-34.9;138.51667;AU;10208
2061840;Scarborough;-31.89578;115.76431;AU;15258
2062013;Salisbury;-34.76667;138.63333;AU;8136
2062057;Safety Bay;-32.30463;115.74213;AU;7121
2062259;Roleystone;-32.11458;116.0706;AU;6425
2062338;Rockingham;-32.27682;115.72978;AU;108022
2062944;Prospect;-34.88241;138.5933;AU;12995
2063030;Port Pirie;-33.19176;138.01746;AU;13206
2063036;Port Lincoln;-34.72625;135.87442;AU;13810
2063042;Port Hedland;-20.31215;118.61059;AU;5570
2063056;Port Augusta;-32.49597;137.77281;AU;6469
2063523;Perth;-31.95224;115.8614;AU;1896548
2064340;Nuriootpa;-34.46825;138.99767;AU;6213
2064550;Northam;-31.64932;116.67423;AU;6517
2064768;Newman;-23.35644;119.73553;AU;12316
2064874;Nedlands;-31.98184;115.8073;AU;10949
2065176;Murray Bridge;-35.11986;139.27345;AU;14491
2065594;Mount Isa;-20.72523;139.49727;AU;22785
2065665;Mount Barker;-35.06667;138.86667;AU;13583
2065710;Mosman Park;-32.00538;115.7638;AU;8566
2065740;Morphett Vale;-35.13333;138.51667;AU;22788
2066041;Modbury;-34.83333;138.68333;AU;5306
2066338;Midland;-31.88909;116.0107;AU;6105
2066756;Maylands;-31.93097;115.89486;AU;12101
2066981;Margaret River;-33.95504;115.07599;AU;7571
2067119;Mandurah;-32.5269;115.7217;AU;83294
2067260;Maddington;-32.05;115.98333;AU;11198
2068079;Kwinana;-32.23013;115.78128;AU;30433
2068110;Kununurra;-15.77825;128.74208;AU;6836
2068569;Kenwick;-32.03333;115.96667;AU;5648
2068594;Kelmscott;-32.12434;116.0259;AU;10278
2069375;Ingle Farm;-34.83333;138.63333;AU;8679
2069646;Hope Valley;-34.83333;138.7;AU;8223
2070106;Happy Valley;-35.08333;138.53333;AU;11531
2070515;Grange;-34.90223;138.49022;AU;5759
2070571;Gosnells;-32.081;116.0054;AU;19914
2070711;Golden Grove;-34.78333;138.73333;AU;10017
2070998;Geraldton;-28.77897;114.61459;AU;26872
2071059;Gawler;-34.60251;138.74902;AU;20006
2071223;Fremantle;-32.05632;115.74557;AU;8616
2071601;Findon;-34.9;138.53333;AU;6178
2073124;Darwin;-12.46113;130.84185;AU;129062
2073603;Cottesloe;-31.99426;115.75816;AU;7136
2074113;Collie;-33.36206;116.15617;AU;7396
2074700;Caversham;-31.88333;115.96667;AU;5182
2074865;Carnarvon;-24.88258;113.65713;AU;7392
2075024;Cannington;-32.01625;115.93648;AU;5906
2075056;Campbelltown;-34.88333;138.66667;AU;8130
2075230;Byford;-32.22099;116.009;AU;14564
2075265;Busselton;-33.65249;115.3455;AU;21898
2075432;Bunbury;-33.32711;115.64137;AU;68248
2075462;Bullsbrook;-31.66905;115.9999;AU;5102
2075720;Broome;-17.95538;122.23922;AU;5314
2076752;Bentley;-32.00224;115.92473;AU;8323
2077030;Bassendean;-31.90906;115.9437;AU;10141
2077454;Australind;-33.2792;115.71504;AU;13940
2077579;Armadale;-32.14607;116.0093;AU;13427
2077641;Applecross;-32.01667;115.83333;AU;6676
2077895;Alice Springs;-23.69748;133.88362;AU;25186
2077963;Albany;-35.02692;117.88369;AU;33650
2078025;Adelaide;-34.92866;138.59863;AU;1225235
2078313;Eaton;-33.31664;115.70503;AU;8166
2078766;Quinns Rocks;-31.67379;115.70372;AU;8442
2078894;East Fremantle;-32.03823;115.7676;AU;7209
2078904;Claremont;-31.97961;115.7823;AU;8033
2078907;Bicton;-32.02778;115.78333;AU;6422
2078908;Attadale;-32.02489;115.802;AU;6196
2079183;Warnbro;-32.34017;115.7473;AU;10426
2079189;Mullaloo;-31.77896;115.73676;AU;5794
2142245;Young;-34.3135;148.30107;AU;10160
2142316;Yeppoon;-23.12683;150.74406;AU;13285
2142412;Yass;-34.84036;148.90987;AU;6454
2142447;Yarrawonga;-36.01923;145.99973;AU;7630
2142457;Yarraville;-37.81667;144.9;AU;14733
2142648;Yamba;-29.4375;153.35914;AU;6913
2142747;Wynyard;-40.9897;145.72617;AU;5820
2142750;Wynnum;-27.44527;153.15813;AU;12650
2142871;Woy Woy;-33.48433;151.32471;AU;10668
2142894;Worongary;-28.05;153.35;AU;5598
2142902;Woree;-16.95;145.75;AU;5351
2142943;Woonona;-34.34932;150.91443;AU;11980
2143003;Woolgoolga;-30.11058;153.20067;AU;5495
2143069;Woodridge;-27.63333;153.1;AU;12425
2143103;Woodend;-37.35469;144.52902;AU;5709
2143255;Wollert;-37.58333;145.03333;AU;9053
2143285;Wodonga;-36.12179;146.88809;AU;18582
2143380;Wingham;-31.86676;152.36989;AU;5329
2143407;Windsor;-37.85344;144.99241;AU;7257
2143561;Williamstown;-37.86349;144.899;AU;13869
2143747;Whittlesea;-37.51152;145.11836;AU;5552
2143887;Wheelers Hill;-37.9;145.18333;AU;19369
2143940;West Tamworth;-31.10236;150.91447;AU;5259
2143954;West Pymble;-33.76667;151.13333;AU;5211
2143973;Westmead;-33.80383;150.98768;AU;17835
2143984;West Hoxton;-33.93388;150.83234;AU;9978
2144095;Werribee;-37.9;144.66667;AU;40143
2144122;Wentworthville;-33.80652;150.96785;AU;11328
2144127;Wentworth Falls;-33.71033;150.37534;AU;5928
2144139;Wendouree;-37.53078;143.82838;AU;10197
2144157;Wellington Point;-27.48333;153.25;AU;12052
2144326;Waurn Ponds;-38.21667;144.28333;AU;5198
2144332;Wauchope;-31.45792;152.72617;AU;6252
2144397;Watsonia;-37.71667;145.08333;AU;5146
2144502;Warwick;-28.21901;152.03438;AU;12208
2144528;Warrnambool;-38.38176;142.48799;AU;29176
2144583;Warrandyte;-37.75;145.23333;AU;5368
2144604;Warragul;-38.15912;145.93118;AU;15284
2144728;Wantirna South;-37.88333;145.21667;AU;19081
2144729;Wantirna;-37.85;145.21667;AU;13995
2144764;Wangaratta;-36.35846;146.32056;AU;17897
2144838;Wamberal;-33.41554;151.44559;AU;6378
2144890;Wallsend;-32.90133;151.66432;AU;12344
2144949;Wallan;-37.41625;144.97859;AU;10953
2145079;Waitara;-33.71092;151.1033;AU;5874
2145092;Wahroonga;-33.71816;151.11561;AU;17652
2145110;Wagga Wagga;-35.12577;147.35375;AU;7690
2145187;Villawood;-33.88434;150.98027;AU;6067
2145214;Victoria Point;-27.58329;153.31172;AU;14669
2145267;Vermont;-37.83616;145.19428;AU;10239
2145299;Vaucluse;-33.85549;151.27754;AU;9205
2145361;Urraween;-25.29522;152.82206;AU;7000
2145392;Urangan;-25.29214;152.90535;AU;10758
2145409;Upwey;-37.9;145.33333;AU;6501
2145461;Upper Coomera;-27.87683;153.28572;AU;24956
2145518;Unanderra;-34.45306;150.84746;AU;5430
2145532;Ulverstone;-41.16026;146.18242;AU;6189
2145554;Ulladulla;-35.35906;150.47247;AU;6468
2145765;Tweed Heads;-28.17671;153.5452;AU;9017
2145796;Turramurra;-33.73342;151.12849;AU;11690
2145869;Tuncurry;-32.17443;152.49876;AU;6277
2145875;Tumut;-35.30642;148.21818;AU;6167
2145921;Tullamarine;-37.70128;144.881;AU;6783
2145929;Tugun;-28.15;153.5;AU;6951
2145990;Truganina;-37.81667;144.75;AU;20646
2146013;Trinity Beach;-16.78876;145.69682;AU;6057
2146108;Traralgon;-38.19528;146.5415;AU;24605
2146142;Townsville;-19.26639;146.80569;AU;196219
2146218;Torquay;-38.33085;144.32638;AU;12854
2146219;Torquay;-25.28496;152.87886;AU;7426
2146268;Toowoomba;-27.56056;151.95386;AU;131258
2146270;Toowong;-27.48333;152.98333;AU;10780
2146291;Toorak;-37.84165;145.01438;AU;12556
2146305;Toongabbie;-33.78333;150.95;AU;14218
2146777;Thornton;-32.78333;151.63333;AU;7879
2146780;Thornleigh;-33.73228;151.07895;AU;8395
2146782;Thornlands;-27.55751;153.26481;AU;14475
2146793;Thornbury;-37.75819;145.00583;AU;18292
2146827;Thomastown;-37.68333;145.01667;AU;20441
2146845;Thirroul;-34.31604;150.92142;AU;5920
2146997;Tewantin;-26.39104;153.03432;AU;11157
2147023;Terrigal;-33.44815;151.44665;AU;11309
2147139;Templestowe Lower;-37.76667;145.11667;AU;13233
2147140;Templestowe;-37.75405;145.14864;AU;16305
2147336;Tarragindi;-27.52713;153.04556;AU;10572
2147357;Tarneit;-37.83634;144.65952;AU;34372
2147381;Taree;-31.91099;152.45387;AU;16359
2147497;Tamworth;-31.09048;150.92905;AU;47597
2147618;Tahmoor;-34.22246;150.59467;AU;5016
2147714;Sydney;-33.86785;151.20732;AU;4627345
2147717;Sydenham;-37.7;144.76667;AU;10731
2147756;Swan Hill;-35.33781;143.5544;AU;10875
2147804;Sutherland;-34.031;151.05532;AU;10657
2147821;Surry Hills;-33.88374;151.21282;AU;16492
2147826;Surrey Hills;-37.81667;145.1;AU;13268
2147849;Surfers Paradise;-28.00274;153.42999;AU;31073
2147864;Sunshine;-37.78333;144.83333;AU;9558
2147892;Sunnybank;-27.58003;153.06064;AU;8622
2147914;Sunbury;-37.57742;144.72607;AU;35449
2148070;Strathpine;-27.30414;152.98977;AU;9352
2148086;Strathfieldsaye;-36.80667;144.35487;AU;5283
2148088;Strathfield;-33.88096;151.07986;AU;25769
2148431;Stawell;-37.05632;142.78088;AU;5889
2148507;Stanthorpe;-28.65425;151.93388;AU;5378
2148513;Stanmore;-33.89407;151.16424;AU;7879
2148582;Springwood;-33.7;150.55;AU;8358
2148588;Springvale South;-37.96667;145.15;AU;12653
2148591;Springvale;-37.94853;145.15274;AU;21572
2148627;Spring Hill;-27.46141;153.02311;AU;7213
2148876;South Yarra;-37.83834;144.99149;AU;25237
2148928;Southport;-27.96724;153.39796;AU;32965
2148955;South Melbourne;-37.83333;144.96667;AU;10757
2148997;South Grafton;-29.7076;152.92627;AU;6164
2149128;Somerville;-38.21667;145.16667;AU;11062
2149271;Smithfield;-33.85;150.93333;AU;11899
2149349;Slacks Creek;-27.65;153.15;AU;10352
2149475;Singleton;-32.56742;151.16603;AU;5076
2149645;Shepparton;-36.38047;145.39867;AU;31148
2149797;Seymour;-37.02655;145.13924;AU;6235
2149847;Seven Hills;-33.78333;150.93333;AU;19196
2149936;Sebastopol;-37.58532;143.83953;AU;9890
2149975;Seaford;-38.1;145.13333;AU;16148
2150093;Scoresby;-37.9;145.23333;AU;5958
2150096;Scone;-32.05014;150.86893;AU;5613
2150216;Sarina;-21.4191;149.21677;AU;5534
2150460;Sandringham;-37.95218;145.01129;AU;10009
2150615;Sale;-38.11095;147.06802;AU;13456
2150660;Saint Kilda;-37.8676;144.98099;AU;20417
2150669;Saint Ives;-33.72976;151.15977;AU;17036
2150717;Saint Albans;-37.73333;144.8;AU;35091
2150765;Rye;-38.38528;144.81221;AU;8121
2150767;Ryde;-33.8188;151.1062;AU;26385
2150768;Rydalmere;-33.81453;151.03751;AU;6571
2150791;Rutherford;-32.71667;151.53333;AU;11788
2150894;Rowville;-37.93333;145.23333;AU;33160
2151061;Roseville;-33.78333;151.18333;AU;9908
2151120;Rosebud;-38.35542;144.9068;AU;12871
2151146;Rosanna;-37.73895;145.06735;AU;7697
2151157;Rooty Hill;-33.76667;150.83333;AU;14821
2151187;Roma;-26.56741;148.78751;AU;7105
2151437;Rockhampton;-23.38032;150.50595;AU;61724
2151443;Rockdale;-33.95;151.13333;AU;15436
2151522;Riverstone;-33.68333;150.86667;AU;7191
2151574;Ringwood North;-37.8;145.23333;AU;9565
2151575;Ringwood East;-37.81667;145.25;AU;10347
2151576;Ringwood;-37.81667;145.23333;AU;17242
2151649;Richmond;-37.81819;145.00176;AU;27878
2151650;Richmond;-33.59956;150.75142;AU;5630
2151682;Rhodes;-33.82663;151.0881;AU;11828
2151697;Revesby;-33.95;151.01667;AU;14056
2151716;Reservoir;-37.71667;145;AU;50092
2151886;Redlynch;-16.9254;145.69559;AU;9666
2151892;Redland Bay;-27.6113;153.30022;AU;14626
2151905;Red Hill;-20.31667;148.5;AU;5406
2151932;Redfern;-33.89279;151.20415;AU;13052
2152022;Raymond Terrace;-32.75952;151.7505;AU;12620
2152286;Queanbeyan;-35.35493;149.232;AU;6296
2152329;Quakers Hill;-33.73333;150.88333;AU;26904
2152339;Pyrmont;-33.86985;151.19402;AU;13549
2152361;Pymble;-33.74386;151.14188;AU;10932
2152558;Preston;-37.75;145.01667;AU;32499
2152593;Prahran;-37.85114;144.99318;AU;12823
2152625;Potts Point;-33.86701;151.22586;AU;12168
2152658;Port Melbourne;-37.83961;144.94228;AU;15817
2152659;Port Macquarie;-31.43084;152.90894;AU;45692
2152667;Portland;-38.3462;141.60257;AU;9429
2152671;Port Kembla;-34.4818;150.9012;AU;5012
2152681;Port Douglas;-16.48383;145.46725;AU;8237
2152812;Point Vernon;-25.25727;152.81725;AU;5693
2152819;Point Cook;-37.91482;144.75088;AU;49436
2153168;Pimpama;-27.81667;153.3;AU;9396
2153359;Petrie;-27.26667;152.98333;AU;8494
2153467;Penshurst;-33.96667;151.08333;AU;12673
2153471;Penrith;-33.75;150.7;AU;13343
2153483;Pennant Hills;-33.73783;151.07216;AU;7199
2153496;Pendle Hill;-33.80402;150.95543;AU;7150
2153720;Pascoe Vale;-37.73333;144.93333;AU;16850
2153770;Parkville;-37.78333;144.95;AU;9188
2153778;Parkes;-33.1372;148.1759;AU;11274
2153784;Parkdale;-37.99187;145.08128;AU;11514
2153887;Palmwoods;-26.68584;152.96135;AU;5575
2153925;Palm Beach;-28.11694;153.46584;AU;15205
2153953;Pakenham;-38.07018;145.47411;AU;45895
2154050;Oxley;-27.55;152.98333;AU;8344
2154172;Ormond;-37.9;145.03333;AU;7711
2154176;Ormiston;-27.51667;153.25;AU;5669
2154178;Ormeau;-27.76791;153.2428;AU;14180
2154219;Orange;-33.28397;149.10018;AU;38408
2154481;Officer;-38.05916;145.40947;AU;7044
2154544;Oatley;-33.98004;151.07201;AU;10301
2154616;Oakleigh East;-37.9;145.11667;AU;6344
2154618;Oakleigh;-37.89809;145.08837;AU;7822
2154720;Nunawading;-37.82043;145.17308;AU;11645
2154787;Nowra;-34.88422;150.60036;AU;9598
2154855;North Sydney;-33.839;151.2072;AU;8055
2154912;North Melbourne;-37.79798;144.94512;AU;15395
2154913;Northmead;-33.78378;150.99858;AU;11042
2154917;North Mackay;-21.12009;149.17941;AU;5742
2154962;Fitzroy North;-37.78862;144.97885;AU;11999
2155001;Northcote;-37.76667;145;AU;24115
2155092;Normanhurst;-33.7237;151.09576;AU;5211
2155132;Noosaville;-26.4;153.06667;AU;9811
2155135;Noosa Heads;-26.39433;153.0901;AU;7041
2155204;Noble Park;-37.96667;145.16667;AU;30921
2155386;Newtown;-33.89835;151.17754;AU;14820
2155411;Newport;-37.84427;144.88483;AU;12751
2155412;Newport;-33.65639;151.31401;AU;9048
2155415;New Norfolk;-42.78261;147.0587;AU;5366
2155416;Newnham;-41.38969;147.11397;AU;6481
2155472;Newcastle;-32.92953;151.7801;AU;308308
2155542;Nerang;-27.98941;153.33633;AU;16739
2155562;Nelson Bay;-32.72043;152.14398;AU;6096
2155717;Narre Warren North;-37.98333;145.31667;AU;7583
2155718;Narre Warren;-38.03333;145.3;AU;26389
2155742;Narrabri;-30.32488;149.78266;AU;7866
2155745;Narrabeen;-33.71277;151.29736;AU;8049
2155783;Narara;-33.39593;151.33527;AU;7841
2155787;Narangba;-27.20338;152.95923;AU;18217
2155796;Naracoorte;-36.95785;140.7383;AU;5876
2155858;Nambucca Heads;-30.64318;153.00884;AU;6529
2155859;Nambucca;-30.63333;152.98333;AU;6137
2155862;Nambour;-26.62613;152.95941;AU;11482
2156034;Muswellbrook;-32.26118;150.89009;AU;12135
2156049;Murwillumbah;-28.32732;153.39339;AU;7097
2156067;Murrumbeena;-37.9;145.06667;AU;9767
2156340;Mulgrave;-37.92845;145.17708;AU;17647
2156403;Mudgeeraba;-28.08333;153.36667;AU;13466
2156404;Mudgee;-32.59426;149.5871;AU;11035
2156492;Mount Waverley;-37.87709;145.12939;AU;33149
2156578;Mount Martha;-38.26667;145.01667;AU;17788
2156643;Mount Gambier;-37.8318;140.77919;AU;25030
2156652;Mount Evelyn;-37.78333;145.38333;AU;9467
2156663;Mount Eliza;-38.18333;145.08333;AU;17358
2156671;Mount Druitt;-33.76667;150.81667;AU;16682
2156683;Mount Cotton;-27.63333;153.23333;AU;6729
2156694;Mount Colah;-33.68333;151.11667;AU;6974
2156777;Moss Vale;-34.55374;150.37115;AU;8430
2156813;Mosman;-33.83902;151.23956;AU;27844
2156825;Morwell;-38.23476;146.39499;AU;13620
2156853;Mortdale;-33.96897;151.07231;AU;10315
2156878;Mornington;-38.21792;145.03876;AU;23245
2156927;Moree;-29.46278;149.84157;AU;9779
2156933;Mordialloc;-38;145.08333;AU;8027
2156934;Morayfield;-27.10876;152.94907;AU;21221
2156942;South Morang;-37.65;145.1;AU;23874
2156974;Mooroopna;-36.4;145.35;AU;7745
2156977;Mooroolbark;-37.78247;145.31682;AU;21503
2157026;Moorabbin;-37.94146;145.05779;AU;5824
2157056;Moonee Ponds;-37.76667;144.91667;AU;14041
2157090;Moonah;-42.84617;147.30228;AU;5311
2157109;Mooloolaba;-26.68164;153.11925;AU;9502
2157161;Montrose;-37.81667;145.35;AU;6595
2157167;Montmorency;-37.71667;145.11667;AU;8670
2157243;Mona Vale;-33.67757;151.30307;AU;10536
2157343;Moe;-38.17828;146.26099;AU;8607
2157355;Moama;-36.10413;144.7608;AU;6164
2157373;Mittagong;-34.45002;150.44572;AU;5725
2157380;Mitchelton;-27.41667;152.96667;AU;8387
2157410;Mitcham;-37.81667;145.2;AU;15861
2157495;Miranda;-34.03857;151.10005;AU;15111
2157508;Minto;-34.03333;150.85;AU;12461
2157635;Mill Park;-37.66667;145.06667;AU;29474
2157698;Mildura;-34.18551;142.16251;AU;32936
2157995;Merrylands;-33.83333;150.98333;AU;29508
2158051;Mernda;-37.60075;145.09555;AU;16370
2158109;Mentone;-37.98333;145.06667;AU;12620
2158130;Menai;-34.01667;151.01667;AU;10199
2158145;Melton South;-37.70773;144.57493;AU;11426
2158151;Melton;-37.68339;144.58543;AU;7999
2158177;Melbourne;-37.814;144.96332;AU;4246375
2158220;Medowie;-32.7415;151.8676;AU;9301
2158307;McKinnon;-37.91667;145.05;AU;5553
2158494;Maudsland;-27.95;153.26667;AU;5468
2158504;Matraville;-33.96344;151.23195;AU;9768
2158538;Mascot;-33.92598;151.19347;AU;15985
2158561;Maryborough;-37.04562;143.73923;AU;7830
2158562;Maryborough;-25.54073;152.70493;AU;15479
2158626;Marrickville;-33.90741;151.15546;AU;26140
2158651;Maroubra;-33.95;151.23333;AU;30224
2158724;Maribyrnong;-37.77241;144.88435;AU;12086
2158745;Margate;-27.24761;153.09809;AU;7342
2158767;Mareeba;-16.99096;145.42306;AU;11339
2158867;Manly;-33.79798;151.28826;AU;16170
2158952;Malvern;-37.86259;145.02811;AU;10143
2159018;Malabar;-33.96216;151.24796;AU;5403
2159045;Maitland;-32.73308;151.5574;AU;67132
2159131;Maffra;-37.97132;146.98366;AU;5050
2159177;Macleod;-37.73333;145.06667;AU;9606
2159220;Mackay;-21.15345;149.16554;AU;74219
2159291;Lysterfield;-37.93333;145.3;AU;6569
2159654;Long Jetty;-33.35917;151.48834;AU;6399
2159732;Loganlea;-27.67535;153.13472;AU;7296
2159734;Loganholme;-27.68444;153.1864;AU;6222
2159851;Liverpool;-33.91938;150.92588;AU;27545
2160053;Lithgow;-33.4845;150.14903;AU;5125
2160070;Lisarow;-33.38333;151.36667;AU;5036
2160113;Lindisfarne;-42.84837;147.36192;AU;5992
2160114;Lindfield;-33.78333;151.16667;AU;9616
2160188;Lilydale;-37.75;145.35;AU;16209
2160258;Lidcombe;-33.86436;151.0397;AU;19791
2160299;Leumeah;-34.05;150.83333;AU;9767
2160336;Leopold;-38.19001;144.46825;AU;12389
2160339;Leongatha;-38.47607;145.94685;AU;5408
2160386;Leichhardt;-33.88341;151.15625;AU;14373
2160413;Leeton;-34.55105;146.40483;AU;8634
2160484;Lawnton;-27.28333;152.98333;AU;5560
2160493;Lavington;-36.03976;146.93958;AU;12334
2160517;Launceston;-41.43876;147.13467;AU;106153
2160560;Lara;-38.02388;144.40617;AU;15919
2160582;Langwarrin;-38.16667;145.16667;AU;22146
2160625;Lane Cove;-33.8157;151.16679;AU;10646
2160706;Lalor;-37.66667;145.01667;AU;22413
2160744;Lakemba;-33.91972;151.07592;AU;16921
2160774;Lake Albert;-35.16667;147.38333;AU;5908
2160885;Kyneton;-37.24444;144.45148;AU;6904
2160910;Kyabram;-36.31335;145.05035;AU;7099
2160922;Kurri Kurri;-32.81933;151.47908;AU;6048
2161185;Kogarah;-33.9681;151.13564;AU;15705
2161311;Kingston;-42.97638;147.30351;AU;10154
2161315;Kingston;-27.66667;153.11667;AU;10518
2161335;Kingscliff;-28.25983;153.57816;AU;7878
2161376;Kingaroy;-26.53994;151.8373;AU;10064
2161408;Kilsyth;-37.8;145.31667;AU;10646
2161415;Kilmore;-37.29577;144.95252;AU;7865
2161515;Kiama;-34.66828;150.85219;AU;6836
2161532;Keysborough;-37.99116;145.17385;AU;25637
2161540;Kew;-37.80639;145.03086;AU;24491
2161608;Kensington;-33.92019;151.22241;AU;15021
2161609;Kensington;-37.79188;144.93114;AU;9719
2161613;Kennington;-36.77128;144.30298;AU;5545
2161658;Kempsey;-31.07898;152.83093;AU;9522
2161678;Kelso;-33.41667;149.6;AU;8798
2161719;Keilor;-37.71667;144.83333;AU;5730
2161776;Katoomba;-33.71977;150.30739;AU;8204
2161903;Kangaroo Flat;-36.8;144.25;AU;10088
2162255;Jindabyne;-36.41745;148.62254;AU;6547
2162276;Jimboomba;-27.83118;153.02737;AU;12981
2162419;Jannali;-34.01643;151.06065;AU;6078
2162586;Irymple;-34.23537;142.17101;AU;5182
2162658;Inverloch;-38.62659;145.7226;AU;5257
2162662;Inverell;-29.77403;151.11166;AU;11609
2162733;Ingleburn;-34;150.86667;AU;14994
2162970;Hughesdale;-37.9;145.08333;AU;7473
2163055;Horsham;-36.71131;142.19981;AU;14233
2163137;Hornsby;-33.70244;151.09931;AU;22335
2163256;Homebush;-33.86667;151.08333;AU;6787
2163270;Holsworthy;-33.98333;150.96667;AU;5771
2163355;Hobart;-42.87936;147.32941;AU;216656
2163472;Highett;-37.95;145.05;AU;10344
2163641;Helensburgh;-34.17836;150.99522;AU;6221
2163653;Heidelberg West;-37.73922;145.04034;AU;5495
2163654;Heidelberg;-37.75;145.06667;AU;6915
2163684;Heathmont;-37.83333;145.25;AU;9517
2163697;Heathcote;-34.0841;151.01305;AU;5935
2163701;Healesville;-37.65395;145.51718;AU;7382
2163755;Haymarket;-33.87868;151.20526;AU;9587
2163776;Hawthorn South;-37.8329;145.0367;AU;21177
2163782;Hawthorn;-37.81992;145.0358;AU;23051
2163837;Hastings;-38.3;145.18333;AU;9449
2163881;Harristown;-27.58333;151.93333;AU;8417
2163990;Hampton Park;-38.03333;145.25;AU;25377
2163994;Hampton;-37.95;145;AU;12482
2164025;Hamilton;-37.74425;142.02202;AU;9720
2164062;Hallam;-38.01667;145.26667;AU;10776
2164123;Haberfield;-33.88296;151.14389;AU;6363
2164129;Gympie;-26.18979;152.66499;AU;10805
2164206;Gunnedah;-30.98065;150.25838;AU;9761
2164395;Grovedale;-38.2;144.35;AU;13897
2164422;Griffith;-34.28853;146.05093;AU;18154
2164495;Greenvale;-37.63333;144.86667;AU;15338
2164515;Greensborough;-37.70462;145.10302;AU;20407
2164601;Greenbank;-27.71667;152.98333;AU;7563
2164691;Granville;-33.8406;151.00748;AU;22889
2164771;Grafton;-29.68104;152.93394;AU;10501
2164784;Gracemere;-23.43792;150.45749;AU;11039
2164837;Goulburn;-34.75155;149.72086;AU;22645
2164855;Gorokan;-33.25764;151.5097;AU;8211
2164883;Gordonvale;-17.09959;145.78038;AU;6754
2164903;Gordon;-33.75535;151.15115;AU;7567
2164966;Goonellabah;-28.81667;153.31667;AU;12781
2164972;Goondiwindi;-28.54709;150.30546;AU;6577
2165025;Goodna;-27.61046;152.89896;AU;10432
2165087;Gold Coast;-28.00029;153.43088;AU;591473
2165171;Glen Waverley;-37.87811;145.16476;AU;40238
2165200;Glenroy;-37.7;144.93333;AU;22127
2165229;Glenorchy;-42.83343;147.27593;AU;10647
2165290;Glen Iris;-37.86667;145.06667;AU;24838
2165291;Glen Innes;-29.73485;151.7385;AU;6093
2165303;Glenhaven;-33.7;151;AU;6402
2165326;Glenfield;-33.96667;150.9;AU;9538
2165329;Glenferrie;-37.83333;145.05;AU;21177
2165450;Glebe;-33.87884;151.18426;AU;11525
2165478;Gladstone;-23.84852;151.25775;AU;30489
2165488;Gisborne;-37.48858;144.59421;AU;8725
2165796;Geelong West;-38.13888;144.34842;AU;6775
2165798;Geelong;-38.14711;144.36069;AU;226034
2165828;Gatton;-27.55873;152.27618;AU;7003
2166143;Frankston East;-38.13333;145.13333;AU;34457
2166144;Frankston;-38.14458;145.12291;AU;36239
2166309;Forster;-32.18136;152.51715;AU;13660
2166340;Forest Hill;-37.83333;145.18333;AU;10632
2166368;Forbes;-33.38436;148.0076;AU;8481
2166370;Footscray;-37.8;144.9;AU;16550
2166584;Fitzroy;-37.79839;144.97833;AU;11267
2166819;Fawkner;-37.71667;144.96667;AU;14019
2166952;Fairfield;-33.86667;150.95;AU;17932
2167208;Essendon;-37.74981;144.9109;AU;20310
2167279;Epping;-37.65;145.03333;AU;32696
2167280;Epping;-33.77271;151.08184;AU;23435
2167312;Engadine;-34.06564;151.01266;AU;17141
2167330;Emu Plains;-33.75;150.66667;AU;8395
2167425;Emerald;-37.93167;145.44093;AU;5571
2167426;Emerald;-23.52296;148.15784;AU;14536
2167444;Eltham North;-37.7;145.15;AU;6712
2167445;Eltham;-37.73333;145.15;AU;17829
2167449;Elsternwick;-37.88639;145.0025;AU;10160
2167651;Eight Mile Plains;-27.58333;153.1;AU;15364
2167744;Edmonton;-17.01902;145.74443;AU;10652
2167751;Edithvale;-38.03724;145.10974;AU;5683
2167817;Echuca;-36.14057;144.75185;AU;13927
2167840;Eastwood;-33.79176;151.08057;AU;17792
2167869;East Maitland;-32.75;151.58333;AU;11562
2167943;East Ballina;-28.85709;153.58736;AU;5587
2167949;Earlwood;-33.9209;151.12506;AU;17592
2167973;Eaglehawk;-36.71611;144.25049;AU;5513
2167983;Eagleby;-27.68333;153.21667;AU;13198
2168041;Dural;-33.68333;151.01667;AU;7493
2168305;Dubbo;-32.24295;148.60484;AU;39863
2168372;Drouin;-38.13658;145.85838;AU;11994
2168386;Dromana;-38.33375;144.96458;AU;5651
2168537;Doreen;-37.6;145.15;AU;20954
2168556;Doonside;-33.76667;150.86667;AU;13356
2168579;Donvale;-37.7891;145.17488;AU;12076
2168605;Doncaster East;-37.78761;145.14888;AU;28016
2168607;Doncaster;-37.78828;145.12373;AU;20728
2168807;Dingley Village;-37.9827;145.1342;AU;10191
2168919;Diamond Creek;-37.66667;145.15;AU;11475
2168943;Devonport;-41.17695;146.35152;AU;13363
2169018;Derrimut;-37.79238;144.76994;AU;8200
2169068;Deniliquin;-35.53245;144.95364;AU;7793
2169145;Deer Park;-37.76722;144.76657;AU;17980
2169220;Deception Bay;-27.19354;153.02631;AU;19539
2169378;Darlinghurst;-33.87939;151.21925;AU;12073
2169386;Darley;-37.65807;144.44344;AU;8281
2169423;Dapto;-34.50386;150.79416;AU;10568
2169460;Dandenong;-37.98333;145.2;AU;30193
2169535;Dalby;-27.18169;151.26205;AU;12650
2169866;Croydon North;-37.76741;145.29073;AU;7653
2169867;Croydon;-37.8;145.28333;AU;26502
2169868;Croydon;-33.88333;151.11667;AU;10546
2169956;Cronulla;-34.06251;151.14961;AU;17703
2170079;Cranbourne;-38.11342;145.28326;AU;19825
2170089;Craigieburn;-37.6;144.95;AU;50069
2170139;Cowra;-33.83554;148.69663;AU;9996
2170253;Corrimal;-34.37864;150.90356;AU;6424
2170260;Corowa;-35.99704;146.38552;AU;5317
2170278;Cornubia;-27.66667;153.21667;AU;7173
2170307;Corio;-38.08333;144.38333;AU;15215
2170430;Cootamundra;-34.64095;148.02838;AU;6618
2170435;Coorparoo;-27.49325;153.05826;AU;15965
2170456;Cooranbong;-33.07622;151.45409;AU;5377
2170577;Cooma;-36.23517;149.12408;AU;6555
2170581;Coolum Beach;-26.5283;153.08809;AU;9346
2170628;Coolangatta;-28.16944;153.53471;AU;8245
2170697;Coogee;-33.9205;151.25522;AU;15333
2170852;Concord;-33.84722;151.10381;AU;14353
2171000;Collingwood;-37.80253;144.98872;AU;8493
2171019;Collaroy;-33.73205;151.30118;AU;7730
2171069;Colac;-38.339;143.58489;AU;8809
2171085;Coffs Harbour;-30.29626;153.11351;AU;26672
2171168;Coburg;-37.75;144.96667;AU;25846
2171173;Cobram;-35.92069;145.64066;AU;5802
2171250;Clyde North;-38.11667;145.33333;AU;8110
2171320;Clifton Springs;-38.1567;144.5551;AU;7264
2171324;Clifton Hill;-37.79798;144.99533;AU;5790
2171360;Cleveland;-27.52677;153.26516;AU;14541
2171395;Clayton South;-37.93333;145.11667;AU;12574
2171400;Clayton;-37.91667;145.11667;AU;20130
2171452;Clarinda;-37.94066;145.10238;AU;7461
2171476;Claremont;-42.78333;147.25;AU;7629
2171507;Wollongong;-34.424;150.89345;AU;292190
2171586;Chipping Norton;-33.91801;150.95927;AU;8981
2171589;Chippendale;-33.88673;151.19745;AU;8936
2171596;Chinchilla;-26.73787;150.6297;AU;7347
2171693;Chelsea Heights;-38.03333;145.13333;AU;5214
2171694;Chelsea;-38.05;145.11667;AU;7630
2171707;Chatswood;-33.8;151.18333;AU;25140
2171722;Charters Towers;-20.07671;146.26353;AU;9573
2171766;Charlestown;-32.96828;151.69318;AU;11725
2171845;Cessnock;-32.83211;151.35623;AU;15076
2171945;Caulfield North;-37.8739;145.02485;AU;14903
2171948;Caulfield;-37.88251;145.02288;AU;5731
2172106;Castlemaine;-37.06709;144.21684;AU;6692
2172111;Castle Hill;-33.73333;151;AU;39284
2172153;Casino;-28.85819;153.04748;AU;10863
2172191;Carrum Downs;-38.09968;145.17248;AU;20444
2172264;Carnegie;-37.89359;145.05534;AU;17121
2172289;Carlton North;-37.78818;144.97014;AU;6166
2172293;Carlton;-37.8;144.96667;AU;18829
2172303;Carlingford;-33.78269;151.04888;AU;24131
2172311;Caringbah;-34.03534;151.12468;AU;11830
2172434;Capalaba;-27.54333;153.20287;AU;17027
2172477;Cannonvale;-20.27681;148.69759;AU;6107
2172517;Canberra;-35.28346;149.12807;AU;367752
2172563;Camperdown;-33.88965;151.17642;AU;11336
2172586;Campbelltown;-34.06667;150.81667;AU;13193
2172607;Campbellfield;-37.66386;144.95953;AU;5034
2172618;Campbell;-35.28907;149.15382;AU;5050
2172686;Camberwell;-37.84205;145.0694;AU;21744
2172728;Calliope;-24.00705;151.20033;AU;5060
2172797;Cairns;-16.92366;145.76613;AU;153075
2172832;Caboolture;-27.08465;152.9511;AU;26341
2172880;Byron Bay;-28.64989;153.61246;AU;6375
2172994;Burwood East;-37.85;145.15;AU;10125
2172995;Burwood;-33.88333;151.1;AU;15935
2173099;Burpengary;-27.15746;152.95758;AU;13779
2173125;Burnie;-41.05584;145.90375;AU;19972
2173152;Burleigh Heads;-28.1;153.45;AU;10978
2173310;Bundamba;-27.60947;152.81133;AU;6367
2173323;Bundaberg;-24.86621;152.3479;AU;70826
2173445;Bulli;-34.33834;150.91347;AU;6025
2173464;Bulleen;-37.76667;145.08333;AU;10756
2173605;Buderim;-26.68443;153.05705;AU;28774
2173734;Brunswick West;-37.76461;144.94383;AU;13880
2173739;Brunswick East;-37.77255;144.97241;AU;11315
2173741;Brunswick;-37.76667;144.96667;AU;24176
2173911;Broken Hill;-31.9652;141.4512;AU;18027
2173964;Broadmeadows;-37.68015;144.91877;AU;12009
2173977;Broadbeach;-28.02782;153.43343;AU;8738
2174003;Brisbane;-27.46794;153.02809;AU;2189878
2174039;Brighton;-37.90561;145.00279;AU;22742
2174040;Brighton;-27.29582;153.05721;AU;9361
2174360;Box Hill;-37.81887;145.12545;AU;11792
2174400;Bowral;-34.4775;150.4204;AU;10240
2174444;Bowen;-20.01367;148.24754;AU;11417
2174563;Botany;-33.94599;151.19591;AU;10732
2174580;Boronia;-37.86667;145.28333;AU;21857
2174740;Boondall;-27.35317;153.06092;AU;9181
2174933;Bongaree;-27.08367;153.15942;AU;7010
2174976;Bomaderry;-34.84967;150.61093;AU;6499
2175326;Bli Bli;-26.61724;153.03665;AU;7650
2175341;Blaxland;-33.75;150.6;AU;7288
2175403;Blackwater;-23.58351;148.87912;AU;6089
2175411;Blacktown;-33.76667;150.91667;AU;46942
2175527;Blackmans Bay;-43.00311;147.31694;AU;6890
2175696;Birkdale;-27.48333;153.21667;AU;14182
2175819;Biloela;-24.39589;150.51504;AU;6108
2175974;Bexley;-33.95;151.11667;AU;19664
2176031;Berwick;-38.03333;145.35;AU;47074
2176088;Berkeley Vale;-33.35;151.43333;AU;8198
2176090;Berkeley;-34.48333;150.85;AU;7559
2176122;Bentleigh East;-37.91928;145.05301;AU;27368
2176123;Bentleigh;-37.91806;145.03544;AU;15892
2176127;Benowa;-28.0077;153.38583;AU;9015
2176187;Bendigo;-36.75818;144.28024;AU;100617
2176225;Benalla;-36.55113;145.98425;AU;10072
2176245;Belrose;-33.73954;151.21033;AU;8714
2176262;Belmont;-38.17485;144.34276;AU;13767
2176263;Belmont;-33.0274;151.6601;AU;7079
2176373;Belconnen;-35.23798;149.06627;AU;6621
2176406;Beerwah;-26.85881;152.96144;AU;6711
2176412;Beenleigh;-27.71137;153.2029;AU;8171
2176487;Beaumaris;-37.98534;145.03361;AU;12959
2176495;Beaudesert;-27.98691;152.99657;AU;6364
2176542;Beaconsfield;-38.05;145.36667;AU;6614
2176566;Bayswater;-37.85;145.26667;AU;11599
2176592;Baulkham Hills;-33.75881;150.99292;AU;36792
2176632;Bathurst;-33.41665;149.5806;AU;33110
2176648;Bass Hill;-33.89863;150.99541;AU;9229
2176868;Bargara;-24.81476;152.46257;AU;8170
2176934;Banora Point;-28.21298;153.53634;AU;15868
2176938;Bannockburn;-38.04894;144.16882;AU;5203
2176947;Bankstown;-33.91667;151.03333;AU;32399
2177026;Balwyn;-37.80914;145.0789;AU;12944
2177052;Balmain;-33.85481;151.1833;AU;10305
2177069;Ballina;-28.86414;153.56541;AU;8911
2177090;Ballarat East;-37.56667;143.86667;AU;5470
2177091;Ballarat;-37.56622;143.84957;AU;97937
2177113;Balgownie;-34.39505;150.88051;AU;5427
2177114;Balgowlah;-33.79494;151.2572;AU;7768
2177207;Balaclava;-37.86667;145;AU;5383
2177233;Bairnsdale;-37.82289;147.61041;AU;7554
2177394;Bacchus Marsh;-37.67268;144.43829;AU;6281
2177413;Ayr;-19.57393;147.40666;AU;8818
2177513;Auburn;-33.85;151.03333;AU;37245
2177541;Atherton;-17.26864;145.47522;AU;7576
2177546;Aspley;-27.36667;153.01667;AU;12000
2177547;Aspendale;-38.02913;145.10266;AU;6724
2177560;Ashgrove;-27.44552;152.992;AU;12726
2177565;Ashfield;-33.88834;151.12274;AU;23749
2177571;Ashburton;-37.86667;145.08333;AU;7625
2177576;Ascot Vale;-37.77988;144.92276;AU;14587
2177626;Artarmon;-33.81667;151.18333;AU;9392
2177671;Armidale;-30.50123;151.66553;AU;23741
2177678;Armadale;-37.85544;145.02052;AU;8836
2177756;Ararat;-37.28542;142.92728;AU;8275
2177854;Annandale;-33.88333;151.16667;AU;9259
2177914;Andergrove;-21.08333;149.18333;AU;9097
2177992;Altona;-37.86964;144.83036;AU;10563
2177999;Alstonville;-28.84186;153.44022;AU;5662
2178126;Alfredton;-37.56667;143.81667;AU;9013
2178136;Alexandria;-33.89989;151.19951;AU;8075
2178174;Albury;-36.07482;146.92401;AU;5323
2178179;Albion Park;-34.57132;150.77568;AU;13039
2178208;Albany Creek;-27.35364;152.96848;AU;15532
2178321;Acacia Ridge;-27.58333;153.03333;AU;7377
2178354;Aberglasslyn;-32.7;151.53333;AU;5301
2178377;Abbotsford;-33.84889;151.12801;AU;5316
2178378;Abbotsford;-37.8;145;AU;8087
2205629;New Lambton;-32.92838;151.7085;AU;10016
2205969;Gymea;-34.03637;151.08528;AU;7489
2205970;Kirrawee;-34.03831;151.06903;AU;9139
2205979;Gymea Bay;-34.05209;151.08795;AU;6725
2205982;Bangor;-34.01667;151.03333;AU;5471
2205984;Sylvania;-34.01242;151.09718;AU;10422
2205988;Oyster Bay;-34.00407;151.07588;AU;5379
2205999;Brighton-Le-Sands;-33.96009;151.1511;AU;8515
2206002;Sans Souci;-33.9899;151.13334;AU;10249
2206003;Blakehurst;-33.99152;151.10876;AU;6141
2206005;Illawong;-34;151.03333;AU;7206
2206006;Lugarno;-33.98267;151.04184;AU;5521
2206007;Peakhurst;-33.96288;151.05161;AU;10450
2206008;Padstow;-33.95687;151.03191;AU;13226
2206009;Riverwood;-33.94725;151.04973;AU;12059
2206068;New Town;-42.85758;147.30869;AU;6004
2206089;Sandy Bay;-42.89449;147.32439;AU;11727
2206108;Fairy Meadow;-34.39303;150.89275;AU;7283
2206115;Figtree;-34.43556;150.85833;AU;11376
2207153;Norlane;-38.10139;144.35417;AU;8216
2207245;Hamilton;-27.43896;153.06287;AU;7144
2207247;Bulimba;-27.4499;153.05766;AU;6612
2207249;New Farm;-27.46777;153.04834;AU;12256
2207250;Norman Park;-27.47916;153.0625;AU;6118
2207258;East Brisbane;-27.48099;153.04401;AU;5735
2207259;South Brisbane;-27.48034;153.02049;AU;8658
2207268;Maroochydore;-26.66008;153.09953;AU;18342
2207330;Scarborough;-27.20118;153.10939;AU;8605
2207538;Bonbeach;-38.06528;145.12278;AU;6309
2207598;Laverton;-37.86201;144.76979;AU;5001
2207618;Cheltenham;-37.96944;145.04806;AU;21837
2207748;Bellevue Hill;-33.87899;151.25101;AU;10599
2207749;Rose Bay;-33.86877;151.2706;AU;9915
2207753;Paddington;-33.88419;151.23151;AU;12686
2207754;Ultimo;-33.87722;151.1972;AU;8857
2207762;Lilyfield;-33.87499;151.1653;AU;7594
2207783;Drummoyne;-33.85237;151.15491;AU;11718
2207796;Greenwich;-33.83954;151.183;AU;5860
2207809;Hunters Hill;-33.83432;151.1459;AU;9357
2207822;Cammeray;-33.82132;151.21609;AU;6854
2207830;Northbridge;-33.81313;151.21728;AU;6183
2207834;Seaforth;-33.80145;151.23981;AU;6998
2207879;Cremorne;-33.82679;151.22633;AU;11069
2207880;Neutral Bay;-33.83784;151.2175;AU;10250
2208285;Randwick;-33.91439;151.24895;AU;30532
2208288;Bronte;-33.90198;151.26556;AU;6553
2208290;Bondi;-33.89429;151.26444;AU;9891
2208292;Gladesville;-33.83333;151.13333;AU;11673
2208302;Forestville;-33.76667;151.20833;AU;8185
2208305;Dee Why;-33.7511;151.28886;AU;21145
2208313;Umina Beach;-33.52314;151.31325;AU;16413
6255012;Flinders;-34.58333;150.85516;AU;6558
6290236;Airport West;-37.7247;144.88126;AU;7452
6290237;Niddrie;-37.7375;144.89212;AU;5443
6290241;Gladstone Park;-37.68742;144.88675;AU;8260
6301965;Palmerston;-12.48602;130.9833;AU;25000
6354957;Hervey Bay;-25.28762;152.76936;AU;52230
6533368;Moranbah;-22.00163;148.04661;AU;12068
6619280;Sydney Central Business District;-33.86482;151.20773;AU;25654
6619483;Kaleen;-35.21814;149.10516;AU;7092
6620339;Karratha;-20.73765;116.84629;AU;11728
6621334;Biggera Waters;-27.93239;153.40021;AU;8887
6621335;Enfield;-34.8526;138.60255;AU;5289
6621336;Hillarys;-31.80698;115.74045;AU;10603
6621337;Kingsford;-33.92399;151.22749;AU;15338
6621338;Klemzig;-34.87928;138.63562;AU;6018
6621340;Maidstone;-37.78035;144.87353;AU;8956
6621357;Woollahra;-33.8878;151.23681;AU;7278
6640206;Wolli Creek;-33.93133;151.15222;AU;6614
6690772;Corlette;-32.72014;152.10846;AU;5147
6692248;Howrah;-42.88728;147.40554;AU;8317
6693094;Springfield Lakes;-27.66757;152.92488;AU;15081
6693769;North Narrabeen;-33.70935;151.29607;AU;5855
6695255;Joondalup;-31.74445;115.76835;AU;9302
6695266;Como;-31.99119;115.86336;AU;13965
6695559;Arncliffe;-33.93627;151.14819;AU;10523
6697124;East Lismore;-28.82591;153.2888;AU;5029
6697141;Mindarie;-31.68932;115.70698;AU;7326
6697150;Clarkson;-31.68282;115.7247;AU;12599
6697151;Kinross;-31.71868;115.73839;AU;6736
6697152;Currambine;-31.73306;115.74766;AU;6771
6697153;Iluka;-31.73554;115.73058;AU;5168
6697155;Heathridge;-31.76244;115.75895;AU;6534
6697782;Paradise Point;-27.88663;153.3933;AU;6488
6776556;Girraween;-33.799;150.943;AU;5537
6930431;Freshwater;-33.77867;151.28569;AU;8584
6931015;Kelvin Grove;-27.44819;153.01337;AU;7766
6931018;Taringa;-27.49061;152.97861;AU;8145
6931019;Chapel Hill;-27.50264;152.95012;AU;9866
6931020;Kenmore;-27.50759;152.93879;AU;8764
6931021;Inala;-27.59715;152.97432;AU;14840
6941710;Mount Lawley;-31.93439;115.8716;AU;11030
6941781;Main Beach;-27.97879;153.4266;AU;5645
6943454;Paradise;-34.87361;138.66896;AU;6699
6943474;Athelstone;-34.87019;138.6999;AU;8992
6943548;Nundah;-27.40252;153.06165;AU;11823
6943553;Banyo;-27.38236;153.07903;AU;5717
6943555;Zillmere;-27.35591;153.04453;AU;8860
6943556;Taigum;-27.34265;153.04444;AU;6473
6943557;Carseldine;-27.34753;153.02307;AU;9417
6943558;Bracken Ridge;-27.3171;153.03097;AU;16701
6943560;Kallangur;-27.25204;152.99226;AU;20222
6943561;Mango Hill;-27.24349;153.02384;AU;8271
6943562;North Lakes;-27.22426;153.02075;AU;21260
6943564;West End;-27.47923;153.0096;AU;9269
6943567;Highgate Hill;-27.48912;153.01878;AU;6083
6943568;Woolloongabba;-27.48855;153.03655;AU;6321
6943571;Auchenflower;-27.47443;152.99213;AU;6196
6943573;Indooroopilly;-27.50302;152.97518;AU;11987
6943576;Macgregor;-27.5649;153.0665;AU;5742
6943577;Fortitude Valley;-27.45706;153.03178;AU;7276
6943579;Windsor;-27.43631;153.02882;AU;6983
6943581;Clayfield;-27.41894;153.05818;AU;10323
6943582;Chermside;-27.38472;153.03062;AU;10136
6943583;Ferny Grove;-27.4008;152.93475;AU;5677
6943584;Keperra;-27.41376;152.94703;AU;6735
6943585;The Gap;-27.44187;152.93861;AU;16371
6943586;Paddington;-27.45939;152.99509;AU;8315
6944262;Fitzgibbon;-27.33971;153.02921;AU;5572
6945028;Bridgeman Downs;-27.35538;152.99432;AU;8277
6949377;Canterbury;-33.91192;151.11862;AU;7200
6949378;Fairfield West;-33.8667;150.917;AU;11456
6949388;Willoughby;-33.80493;151.1993;AU;6451
6951440;Tamborine Mountain;-27.96954;153.19937;AU;7675
6952201;East Melbourne;-37.81667;144.9879;AU;6196
7116072;Salisbury East;-34.79052;138.6545;AU;8772
7281782;North Ryde;-33.79677;151.12436;AU;10827
7281785;Stirling;-31.88343;115.8099;AU;9625
7281805;Caroline Springs;-37.74124;144.73631;AU;24077
7281807;Hoppers Crossing;-37.88264;144.7003;AU;38178
7281818;West Melbourne;-37.81014;144.95;AU;5588
7281823;Rouse Hill;-33.68207;150.9154;AU;7877
7281838;Logan City;-27.63917;153.10944;AU;282673
7281839;Carindale;-27.50578;153.10236;AU;15418
7281840;Parramatta;-33.8178;151.00348;AU;26876
7281850;Ferntree Gully;-37.88461;145.29539;AU;26019
7284453;Kewarra Beach;-16.78219;145.68455;AU;5691
7290238;Shell Cove;-34.58994;150.86203;AU;5497
7290513;Dawesville;-32.63229;115.62904;AU;5473
7302624;Phillip Island;-38.48349;145.23102;AU;7071
7302625;Springwood;-27.61183;153.12899;AU;9141
7302628;Adelaide Hills;-34.91119;138.70735;AU;60394
7302631;Canning Vale;-32.05799;115.91814;AU;32593
7302634;Varsity Lakes;-28.0894;153.4122;AU;14753
7302635;Roselands;-33.93317;151.0732;AU;11528
7302638;Oxenford;-27.89033;153.31309;AU;11797
7302640;Toormina;-30.35384;153.08843;AU;6210
7302642;Glenmore Park;-33.79068;150.6693;AU;22863
7302683;Southbank;-37.8228;144.96434;AU;22397
7303250;St Kilda East;-37.86594;145.00018;AU;12983
7303640;Golden Beach;-26.82177;153.11972;AU;6093
7304352;Sanctuary Point;-35.10361;150.62667;AU;7020
7521471;Docklands;-37.8149;144.95052;AU;12486
7535702;Mermaid Beach;-28.04411;153.43472;AU;7410
7576707;Helensvale;-27.91828;153.33275;AU;16839
7778951;Mount Annan;-34.05287;150.75984;AU;11584
7932257;Miami;-28.07173;153.44158;AU;7162
7932573;Melton West;-37.67852;144.56883;AU;17477
7932574;Brookfield;-37.7008;144.56025;AU;9145
7932575;Kurunjang;-37.67587;144.5969;AU;9997
7932611;Ashwood;-37.86659;145.10553;AU;6778
7932620;Elwood;-37.88214;144.98215;AU;15122
7932622;Burwood;-37.84978;145.11901;AU;14898
7932623;Box Hill South;-37.83236;145.12098;AU;8300
7932624;Blackburn;-37.81901;145.15326;AU;13703
7932625;Canterbury;-37.8247;145.08476;AU;7926
7932627;Hawthorn East;-37.82484;145.0464;AU;14097
7932628;Kew East;-37.79758;145.05378;AU;6496
7932629;Balwyn North;-37.79086;145.09386;AU;20015
7932630;Mont Albert North;-37.80043;145.10828;AU;5407
7932631;Box Hill North;-37.80266;145.12656;AU;11703
7932632;Blackburn North;-37.80931;145.1518;AU;7328
7932634;Blackburn South;-37.83975;145.15549;AU;10616
7932635;Chadstone;-37.88766;145.09519;AU;8579
7932638;Malvern East;-37.87397;145.04253;AU;21282
7932640;Oakleigh South;-37.92416;145.09146;AU;9182
7932643;Caulfield South;-37.89562;145.02597;AU;11630
7932646;Brighton East;-37.90232;145.01734;AU;15644
7932652;Black Rock;-37.97357;145.01636;AU;5952
7932653;Aspendale Gardens;-38.02277;145.11798;AU;6420
7932659;Brassall;-27.59753;152.74755;AU;10741
7932664;Raceview;-27.63472;152.77519;AU;9601
7932666;Flinders View;-27.65046;152.77451;AU;5719
7932670;Redbank Plains;-27.64613;152.85965;AU;19094
7932671;Collingwood Park;-27.61282;152.86008;AU;7022
7932687;Clontarf;-27.25341;153.07835;AU;8205
7932689;Kippa-Ring;-27.22586;153.0835;AU;9680
7932691;Rothwell;-27.21433;153.04676;AU;7100
8012683;Labrador;-27.94402;153.39815;AU;18326
8014922;Ballarat Central;-37.56206;143.85082;AU;5540
8015185;Delacombe;-37.58911;143.81472;AU;6191
8015209;St Albans;-37.74496;144.80049;AU;37629
8015348;Rozelle;-33.86141;151.1705;AU;8542
8029783;St Leonards;-33.82344;151.19836;AU;6343
8029813;Eleebana;-32.9896;151.63642;AU;5548
8029814;Summer Hill;-33.89146;151.13825;AU;7287
8219740;Bushland Beach;-19.19134;146.67682;AU;5990
8219752;Highfields;-27.46343;151.95386;AU;7922
8219811;Tannum Sands;-23.94749;151.36749;AU;5192
8219830;Sippy Downs;-26.71793;153.05475;AU;10167
8261095;Sorrento;-31.82533;115.75248;AU;7148
8288536;North Perth;-31.92724;115.85276;AU;8504
8288537;West Perth;-31.94896;115.84199;AU;5776
8298607;Altona North;-37.83487;144.84735;AU;12074
8299269;Balcatta;-31.87501;115.82839;AU;10192
8299578;Belmont;-31.9435;115.9255;AU;6799
8299775;North Parramatta;-33.79351;151.00124;AU;13394
8310668;Bateau Bay;-33.38334;151.46671;AU;11905
8310718;Hope Island;-27.87036;153.35164;AU;11154
8310720;Howard Springs;-12.49576;131.04446;AU;6852
8310728;Lake Munmorah;-33.19716;151.5824;AU;5128
8310731;Lennox Head;-28.79131;153.59201;AU;6315
8310752;Ocean Shores;-28.5093;153.5376;AU;5145
8335007;East Perth;-31.95872;115.87109;AU;11549
8347324;Doveton;-37.99346;145.23891;AU;9291
8347325;Endeavour Hills;-37.97695;145.25866;AU;24116
8347677;Sefton;-33.88773;151.01053;AU;5757
8347678;Moorebank;-33.94372;150.95657;AU;9621
8347684;Thurgoona;-36.03626;146.99609;AU;8394
8347692;Glenfield Park;-35.13725;147.33285;AU;5122
8347693;Adamstown Heights;-32.94906;151.71009;AU;5215
8347709;Hocking;-31.77012;115.81832;AU;5783
8347715;Shailer Park;-27.6498;153.17753;AU;11517
8347723;Blue Haven;-33.21106;151.50351;AU;6313
8347727;Bonnyrigg Heights;-33.89117;150.86994;AU;7300
8347730;Bossley Park;-33.86184;150.8841;AU;14476
8347736;Kellyville;-33.71028;150.95095;AU;27676
8347750;Tapping;-31.71947;115.79559;AU;9243
8347752;Seabrook;-37.88092;144.75866;AU;5072
8347759;Canley Vale;-33.88657;150.94802;AU;10162
8347772;Cromer;-33.7312;151.26788;AU;7515
8347774;St Helens Park;-34.10474;150.81368;AU;6553
8347779;Winmalee;-33.67847;150.61213;AU;6057
8347786;Horsley;-34.48763;150.77799;AU;8089
8347795;Erskine Park;-33.81301;150.79773;AU;6393
8347802;Craigmore;-34.70064;138.70956;AU;10745
8347809;Frenchs Forest;-33.74821;151.22322;AU;13278
8347831;Harrington Park;-34.02405;150.73501;AU;10584
8347839;Kings Park;-37.73397;144.77766;AU;8126
8347845;Maryland;-32.87888;151.66143;AU;7502
8347847;Taylors Lakes;-37.69863;144.78631;AU;15422
8347851;Kosciuszko National Park;-36.26436;148.48179;AU;7891
8347858;Macquarie Park;-33.78105;151.12757;AU;9054
8347861;Centenary Heights;-27.58684;151.96249;AU;5980
8347865;Calwell;-35.44042;149.10707;AU;5600
8347868;City;-35.28125;149.12927;AU;5417
8347871;Cherrybrook;-33.72197;151.04607;AU;18588
8347876;Lyneham;-35.2398;149.13074;AU;5085
8347879;Woodcroft;-35.10236;138.56292;AU;10944
8347882;Daisy Hill;-27.63026;153.15784;AU;6558
8347884;Pooraka;-34.82471;138.62637;AU;7158
8347890;Naremburn;-33.81698;151.20079;AU;5772
8347891;Woodvale;-31.78928;115.79676;AU;9116
8347892;Plumpton;-33.75184;150.83686;AU;9208
8347895;North Rocks;-33.77223;151.01718;AU;7899
8347896;Roxburgh Park;-37.62581;144.92555;AU;21742
8347902;Underwood;-27.60885;153.1113;AU;6285
8347903;Mitchell Park;-35.01031;138.56266;AU;5384
8347914;Prestons;-33.94185;150.8717;AU;15312
8347926;Reedy Creek;-28.11243;153.39638;AU;6583
8347929;Warwick Farm;-33.91291;150.93701;AU;5864
8347932;Warriewood;-33.68857;151.29534;AU;7265
8347938;Warilla;-34.55185;150.85831;AU;6377
8347945;Beeliar;-32.13339;115.80637;AU;7293
8347959;Winston Hills;-33.77645;150.98051;AU;11572
8347960;Wetherill Park;-33.84277;150.90061;AU;6104
8347968;Southside;-26.20997;152.64719;AU;5595
8347978;Whalan;-33.75697;150.80402;AU;5913
8347979;Edensor Park;-33.87971;150.87778;AU;9739
8347981;Avondale Heights;-37.76155;144.86261;AU;11539
8347982;Lynbrook;-38.05588;145.25615;AU;8482
8347990;Wentworth Point;-33.8308;151.07441;AU;6937
8347999;Norman Gardens;-23.33044;150.52747;AU;9980
8348012;Ivanhoe;-37.76903;145.04308;AU;12175
8348014;Woongarrah;-33.24134;151.47563;AU;5147
8348020;Kialla;-36.44729;145.41422;AU;6608
8348052;Davoren Park;-34.69063;138.66862;AU;6434
8348061;Banksia Grove;-31.69615;115.80501;AU;9180
8348074;Merewether;-32.94801;151.74325;AU;10557
8348077;Magill;-34.90911;138.67498;AU;8690
8348078;Wyndham Vale;-37.89138;144.62368;AU;23093
8348081;Ballajura;-31.84062;115.89549;AU;18408
8348084;Wynn Vale;-34.79942;138.68714;AU;7610
8348087;Noranda;-31.87333;115.89901;AU;7853
8348093;Piara Waters;-32.13344;115.91634;AU;8892
8348101;Willetton;-32.05251;115.88782;AU;17887
8348105;Merriwa;-31.66494;115.71273;AU;5317
8348110;Green Valley;-33.90292;150.86713;AU;12482
8348131;Teneriffe;-27.45587;153.04696;AU;5067
8348139;Kooringal;-35.14069;147.3768;AU;6972
8348142;Glenwood;-33.73333;150.93284;AU;16040
8348147;Highbury;-34.85287;138.6975;AU;6432
8348148;Highland Park;-28.01392;153.33312;AU;6436
8348154;Petersham;-33.8946;151.15495;AU;8040
8348155;The Range;-23.392;150.49624;AU;5561
8348163;Oakhurst;-33.73883;150.83837;AU;6978
8348165;Manoora;-16.91706;145.73665;AU;6089
8348167;Raby;-34.01846;150.81764;AU;5885
8348170;St Andrews;-34.02243;150.82958;AU;5688
8348173;Carramar;-31.69023;115.77159;AU;7002
8348181;Newborough;-38.17171;146.29264;AU;6601
8348189;Para Hills;-34.8121;138.65802;AU;6468
8348190;O'Connor;-35.25645;149.11248;AU;5450
8348194;Andrews Farm;-34.67632;138.66197;AU;7957
8348216;Boronia Heights;-27.68855;153.01959;AU;7781
8348245;Merrimac;-28.05085;153.37307;AU;7005
8348249;Molendinar;-27.97409;153.36069;AU;6324
8348255;Douglas;-19.32394;146.75234;AU;8522
8348263;Rostrevor;-34.89386;138.69183;AU;7649
8348266;Alexander Heights;-31.82758;115.86501;AU;7841
8348268;Carlisle;-31.97945;115.91808;AU;6296
8348275;Atwell;-32.14346;115.86528;AU;8926
8348276;Aveley;-31.78132;115.98959;AU;9952
8348280;Hillcrest;-27.66857;153.02614;AU;5603
8348285;Mount Warren Park;-27.73109;153.20549;AU;5690
8348286;Balga;-31.85497;115.83986;AU;12440
8348296;Greenwood;-31.82723;115.80247;AU;9338
8348303;Dallas;-37.67083;144.93542;AU;6819
8348304;Leeming;-32.07511;115.86613;AU;10476
8348306;Delahey;-37.7198;144.77732;AU;8287
8348307;Parkwood;-27.95461;153.36304;AU;8656
8348311;Munno Para West;-34.66464;138.68066;AU;5823
8348314;Wilson;-32.02058;115.91181;AU;6288
8348322;Wishart;-27.55448;153.10107;AU;10474
8348326;Butler;-31.64298;115.70431;AU;13011
8348328;South Hedland;-20.40655;118.60069;AU;10380
8348333;Darch;-31.81255;115.8458;AU;6969
8348334;Riverside;-41.42105;147.05086;AU;6303
8348341;Annandale;-19.31503;146.79069;AU;8402
8348370;Kambah;-35.38624;149.05804;AU;14539
8348373;Watson;-35.23815;149.15271;AU;5849
8348375;Queens Park;-32.00314;115.94621;AU;6520
8348378;Edens Landing;-27.7027;153.16943;AU;5042
8348380;Redwood Park;-34.81155;138.70695;AU;5230
8348382;North Haven;-34.78825;138.49162;AU;5457
8348392;Innaloo;-31.89272;115.79508;AU;7999
8348393;Cannon Hill;-27.47237;153.09475;AU;5481
8348397;Carina Heights;-27.50721;153.09126;AU;6725
8348405;Madeley;-31.8111;115.82814;AU;5946
8348406;Booragoon;-32.03945;115.83369;AU;5404
8348408;Christie Downs;-35.12999;138.49633;AU;5227
8348413;Allawah;-33.97257;151.1144;AU;5645
8348415;Doubleview;-31.89627;115.78155;AU;8160
8348417;Ambarvale;-34.08942;150.79656;AU;7333
8348418;Adamstown;-32.93824;151.72541;AU;5904
8348422;Bonnyrigg;-33.89357;150.88908;AU;8697
8348424;Seville Grove;-32.13645;115.98905;AU;10083
8348431;Beacon Hill;-33.7528;151.25857;AU;7308
8348436;Belmore;-33.91901;151.08935;AU;12596
8348441;Beverly Hills;-33.94799;151.07979;AU;10090
8348442;Murrumba Downs;-27.26733;153.01053;AU;10481
8348445;Blakeview;-34.67566;138.7101;AU;7043
8348451;Carrara;-28.02151;153.36635;AU;11970
8348456;North Ward;-19.24994;146.81477;AU;5541
8348460;Cabramatta;-33.89743;150.93446;AU;21634
8348461;Everton Hills;-27.38909;152.97126;AU;5833
8348462;Cameron Park;-32.90701;151.60528;AU;7819
8348464;Elanora;-28.13577;153.44931;AU;12059
8348465;Meadow Springs;-32.49718;115.75334;AU;7873
8348466;Campsie;-33.9125;151.10279;AU;24487
8348469;Canley Heights;-33.88262;150.92408;AU;10936
8348473;Arundel;-27.93768;153.36302;AU;10085
8348474;Warradale;-34.99717;138.53155;AU;5096
8348477;Casula;-33.95222;150.89949;AU;15695
8348480;Bella Vista;-33.74127;150.95456;AU;8056
8348484;Cecil Hills;-33.88917;150.85137;AU;6924
8348485;Beechboro;-31.86515;115.93661;AU;8896
8348486;Chester Hill;-33.87896;150.99945;AU;12765
8348488;Knoxfield;-37.88978;145.24962;AU;7254
8348495;Ashmore;-27.98883;153.37647;AU;11902
8348497;Colyton;-33.78283;150.79679;AU;8285
8348502;Banksia Beach;-27.04027;153.1439;AU;5915
8348511;Cranebrook;-33.7061;150.7094;AU;15649
8348512;Hebersham;-33.74582;150.82385;AU;5660
8348531;Bligh Park;-33.63985;150.80248;AU;6322
8348532;Eagle Vale;-34.03747;150.8136;AU;5779
8348536;Little Mountain;-26.78436;153.09218;AU;9967
8348537;Bardon;-27.461;152.9792;AU;9231
8348540;Edgeworth;-32.92508;151.61612;AU;6142
8348542;Wakerley;-27.483;153.15589;AU;8325
8348543;Elizabeth Bay;-33.87181;151.22706;AU;5270
8348548;Erskineville;-33.90254;151.18579;AU;7856
8348552;Ainslie;-35.26255;149.1437;AU;5067
8348555;Five Dock;-33.8674;151.12905;AU;9218
8348559;Eastlakes;-33.93196;151.21214;AU;6884
8348561;Holland Park West;-27.52625;153.06046;AU;6266
8348565;Glendenning;-33.7483;150.85411;AU;5131
8348574;Greenacre;-33.90034;151.05563;AU;24361
8348575;Greenfield Park;-33.87461;150.89189;AU;5078
8348582;Greystanes;-33.82346;150.94607;AU;22591
8348594;Newtown;-27.55602;151.93255;AU;9493
8348596;Ellenbrook;-31.76737;115.96936;AU;22209
8348605;Jerrabomberra;-35.38441;149.20248;AU;9240
8348606;Alderley;-27.42553;153.00102;AU;5918
8348608;Kanahooka;-34.4916;150.80817;AU;5417
8348609;Greenfields;-32.52429;115.76315;AU;9620
8348610;Hamilton Hill;-32.08451;115.77946;AU;10190
8348612;Karabar;-35.37595;149.2328;AU;8184
8348614;Kariong;-33.43972;151.29453;AU;6305
8348615;Alexandra Hills;-27.53221;153.22889;AU;16043
8348618;Jamisontown;-33.76797;150.67681;AU;5485
8348619;Nollamara;-31.88016;115.84543;AU;11367
8348621;Kingsgrove;-33.93932;151.09928;AU;12390
8348633;Lalor Park;-33.7609;150.93123;AU;7637
8348634;Langford;-32.04092;115.94157;AU;5573
8348635;Bellbowrie;-27.55939;152.88278;AU;5366
8348655;Padbury;-31.80645;115.7688;AU;7937
8348658;Macquarie Fields;-33.99206;150.89307;AU;13686
8348660;Gordon;-35.45676;149.08498;AU;7452
8348667;Marayong;-33.74824;150.89272;AU;7675
8348675;East Victoria Park;-31.98894;115.90388;AU;9854
8348687;Minchinbury;-33.78724;150.82956;AU;5627
8348692;Mount Pritchard;-33.90295;150.90465;AU;9926
8348699;Palmyra;-32.04502;115.78589;AU;6737
8348714;Bentley Park;-17.00389;145.73819;AU;7890
8348720;Berserker;-23.35817;150.52042;AU;6865
8348722;Oak Flats;-34.56229;150.82193;AU;6427
8348724;Narwee;-33.94653;151.06919;AU;5636
8348725;Panania;-33.95366;150.99733;AU;12382
8348737;Condell Park;-33.92458;151.01093;AU;11523
8348740;Ropes Crossing;-33.73276;150.79104;AU;6151
8348741;Rosemeadow;-34.10414;150.79282;AU;7756
8348743;Ruse;-34.06976;150.84168;AU;5520
8348750;Kedron;-27.40286;153.02969;AU;9117
8348752;Brinsmead;-16.89921;145.71554;AU;5480
8348753;South Hurstville;-33.97756;151.1055;AU;5102
8348755;Glengowrie;-34.98708;138.53674;AU;5185
8348757;Wyoming;-33.40387;151.36254;AU;9927
8348765;Calamvale;-27.62329;153.04785;AU;16927
8348766;Burdell;-19.25056;146.69877;AU;5539
8348768;Yagoona;-33.9049;151.01996;AU;17908
8348771;Zetland;-33.90748;151.20857;AU;10269
8348782;Enoggera;-27.42832;152.97467;AU;5133
8348783;Aubin Grove;-32.16714;115.86264;AU;6183
8348786;Albanvale;-37.74609;144.76856;AU;5457
8348789;Coombabah;-27.91073;153.37093;AU;10270
8348795;Park Avenue;-23.35327;150.5189;AU;5001
8348813;Golden Square;-36.77265;144.25271;AU;8694
8348815;Annerley;-27.51228;153.03248;AU;11158
8348822;Currans Hill;-34.04311;150.77301;AU;5251
8348824;Highton;-38.17058;144.3114;AU;18388
8348833;Warners Bay;-32.97251;151.65268;AU;7504
8348836;Dulwich Hill;-33.9041;151.13945;AU;13536
8348838;Sinnamon Park;-27.54436;152.9489;AU;6323
8348839;Wiley Park;-33.9242;151.06737;AU;10098
8348841;Hillvue;-31.12756;150.90711;AU;6191
8348842;Mount Sheridan;-16.98608;145.73244;AU;8110
8348843;Viewbank;-37.73991;145.09323;AU;6769
8348846;Bellbird Park;-27.63674;152.88663;AU;6639
8348847;Bellmere;-27.08441;152.89003;AU;5822
8348850;Albert Park;-37.84107;144.95198;AU;6028
8348857;Crestmead;-27.68759;153.08444;AU;12067
8348859;Fletcher;-32.87232;151.64008;AU;5050
8348867;Frenchville;-23.34761;150.5445;AU;8640
8348868;Griffin;-27.27149;153.03942;AU;6703
8348876;Kuraby;-27.60683;153.09367;AU;8037
8348877;Craigie;-31.78727;115.76989;AU;5713
8348879;Condon;-19.32968;146.71663;AU;5777
8348882;Logan Central;-27.64385;153.10725;AU;5891
8348883;McDowall;-27.38266;152.99194;AU;7108
8348890;Marsden;-27.67342;153.09732;AU;13918
8348895;Mooroobool;-16.93489;145.73137;AU;7098
8348896;Manunda;-16.91721;145.7492;AU;5638
8348898;Chirnside Park;-37.7386;145.31431;AU;9579
8348900;Moorooka;-27.53436;153.0246;AU;10141
8348905;Georges Hall;-33.90879;150.98852;AU;9007
8348907;Macgregor;-35.2098;149.01101;AU;6696
8348920;Pacific Pines;-27.93994;153.31436;AU;16605
8348925;Pelican Waters;-26.83354;153.10013;AU;6213
8348930;Robina;-28.07071;153.39329;AU;23140
8348932;Runaway Bay;-27.91386;153.39775;AU;8970
8348933;Runcorn;-27.59756;153.07699;AU;14434
8348944;Tinana;-25.55196;152.6659;AU;5408
8348945;Tingalpa;-27.4736;153.12704;AU;8051
8348946;Hamlyn Terrace;-33.25125;151.47627;AU;6248
8348947;Hillsdale;-33.95151;151.22784;AU;5412
8348954;Warner;-27.31222;152.94981;AU;11209
8348961;Wilsonton;-27.54312;151.91684;AU;5895
8348967;Meadow Heights;-37.65117;144.91855;AU;14772
8348974;Wurtulla;-26.75648;153.12805;AU;5852
8348977;Algester;-27.61279;153.03239;AU;8330
8348982;Newtown;-38.15391;144.33507;AU;9827
8348984;Kings Langley;-33.75005;150.93542;AU;9286
8348985;Fulham Gardens;-34.91483;138.51324;AU;6056
8348986;Flagstaff Hill;-35.04861;138.58285;AU;9624
8348988;Greenwith;-34.76565;138.71383;AU;8763
8348996;Lockleys;-34.92588;138.52803;AU;5546
8349002;Westminster;-31.86744;115.83919;AU;6058
8349003;Paralowie;-34.75705;138.60819;AU;16386
8349010;Sheidow Park;-35.07928;138.52738;AU;6507
8349013;West Lakes;-34.87299;138.49458;AU;5611
8349016;Strathdale;-36.76572;144.31548;AU;5555
8349017;Baldivis;-32.32889;115.83047;AU;30472
8349019;Bertram;-32.24369;115.84572;AU;6094
8349023;Beckenham;-32.02481;115.95989;AU;7385
8349024;Bibra Lake;-32.09764;115.81921;AU;5744
8349027;Cable Beach;-17.96098;122.21269;AU;8529
8349030;Cloverdale;-31.96281;115.94428;AU;7926
8349036;Carey Park;-33.34878;115.6493;AU;5001
8349037;Parkinson;-27.6434;153.02975;AU;10708
8349039;Carine;-31.8523;115.78258;AU;6341
8349041;Girrawheen;-31.84103;115.83978;AU;8672
8349045;Coolbellup;-32.08124;115.80606;AU;5209
8349046;Cooloongup;-32.31506;115.77772;AU;6670
8349047;Lurnea;-33.93539;150.89673;AU;9282
8349049;Dalyellup;-33.40844;115.61506;AU;8707
8349051;Dianella;-31.88822;115.87186;AU;23034
8349052;Duncraig;-31.83291;115.7759;AU;14976
8349055;Forrestfield;-31.98277;116.00673;AU;12480
8349062;Halls Head;-32.54315;115.69665;AU;13094
8349067;High Wycombe;-31.94444;116.0034;AU;11990
8349069;Kingsley;-31.81036;115.80077;AU;12812
8349071;Kardinya;-32.06561;115.81483;AU;8538
8349072;Karrinyup;-31.87233;115.77684;AU;9037
8349075;Kewdale;-31.97886;115.95159;AU;6747
8349078;Lesmurdie;-32.00199;116.04821;AU;8142
8349083;Morley;-31.88775;115.9099;AU;21134
8349084;Mount Hawthorn;-31.92;115.83509;AU;7351
8349092;Ocean Reef;-31.75871;115.73601;AU;7689
8349098;Port Kennedy;-32.37342;115.7515;AU;13238
8349100;Secret Harbour;-32.40589;115.75852;AU;11551
8349103;Success;-32.14281;115.84999;AU;9905
8349105;Tuart Hill;-31.89808;115.83495;AU;6880
8349108;Thornlie;-32.06003;115.955;AU;22779
8349111;Waikiki;-32.31606;115.7546;AU;12008
8349115;Winthrop;-32.05216;115.82972;AU;5804
8349117;Yangebup;-32.12065;115.81623;AU;7312
8349118;Yokine;-31.90113;115.85319;AU;11364
8349136;Lenah Valley;-42.87146;147.27514;AU;5880
8349138;Kilburn;-34.8597;138.58559;AU;5384
8349161;Casey;-35.16701;149.0947;AU;5664
8349165;Braddon;-35.27078;149.13569;AU;6238
8349170;Palmerston;-35.19447;149.1194;AU;5430
8349171;Curtin;-35.32464;149.07763;AU;5160
8349173;Dunlop;-35.19402;149.01984;AU;7049
8349175;Evatt;-35.21191;149.06891;AU;5187
8349177;Landsdale;-31.8075;115.86599;AU;12048
8349178;Gungahlin;-35.18674;149.13619;AU;6094
8349179;Harrison;-35.19906;149.15631;AU;7556
8349185;Nicholls;-35.18733;149.09648;AU;6910
8349187;Ngunnawal;-35.1728;149.11147;AU;10251
8349191;Wanniassa;-35.39783;149.09086;AU;7347
8349197;Bradbury;-34.0854;150.81541;AU;8730
8349198;Kearneys Spring;-27.60495;151.94098;AU;8502
8349201;Carlton;-33.97107;151.12136;AU;10635
8349203;Clinton;-23.87518;151.21793;AU;5789
8349204;Northgate;-34.85784;138.62908;AU;6154
8349207;Beaconsfield;-21.09121;149.16544;AU;5260
8349208;Hinchinbrook;-33.91878;150.86314;AU;11220
8349217;Oatlands;-33.79595;151.02712;AU;5598
8349218;Bull Creek;-32.05625;115.86242;AU;7624
8349222;Punchbowl;-33.92893;151.05111;AU;20174
8349225;Valentine;-33.01504;151.6429;AU;5417
8349226;Bray Park;-27.29246;152.96783;AU;10099
8349232;Regents Park;-27.67664;153.04165;AU;10943
8349238;Parafield Gardens;-34.78254;138.61077;AU;16872
8349242;Camira;-27.63461;152.92091;AU;7282
8349243;Hillside;-37.69047;144.74172;AU;16976
8349245;Durack;-27.58947;152.98577;AU;7426
8349247;Kangaroo Point;-27.47679;153.0367;AU;8398
8349248;Kelso;-19.38932;146.71912;AU;10291
8349257;Wavell Heights;-27.39385;153.04698;AU;9479
8349259;Red Hill;-27.45247;153.00208;AU;5390
8349269;Huntingdale;-32.08318;115.96614;AU;8525
8349270;Bayswater;-31.91686;115.91776;AU;14236
8349277;Jindalee;-27.53446;152.93843;AU;5198
8349278;Riverton;-32.03468;115.89856;AU;5547
8349283;Wattle Grove;-32.00672;116.00046;AU;5906
8349301;Bruce;-35.24405;149.09083;AU;7349
8349303;Chisholm;-35.41249;149.12825;AU;5045
8349306;Franklin;-35.19946;149.14329;AU;6324
8349310;Monash;-35.41577;149.09063;AU;5305
8349317;Glenvale;-27.56818;151.8934;AU;6238
8349318;St Johns Park;-33.88295;150.90182;AU;6119
8349321;St Clair;-33.79728;150.7847;AU;19856
8349323;Mawson Lakes;-34.81589;138.60809;AU;13220
